id,Name,Type,lon,lat
1,犇亞證券,券商,121.54428,25.052848
2,犇亞-網路,券商,121.54428,25.052848
3,土銀,券商,121.510808,25.043664
4,土銀-台中,券商,120.679901,24.138252
5,土銀-台南,券商,120.203394,22.992252
6,土銀-高雄,券商,120.271294,22.873571
7,土銀-嘉義,券商,120.4498,23.479659
8,土銀-新竹,券商,120.966595,24.803758
9,土銀-玉里,券商,121.314895,23.333297
10,土銀-花蓮,券商,121.605281,23.98263
11,土銀-和平,券商,121.547465,25.024833
12,土銀-士林,券商,121.527246,25.097344
13,土銀-建國,券商,120.316464,22.635522
14,土銀-白河,券商,120.414849,23.351634
15,土銀-南港,券商,121.606405,25.054469
16,大和國泰,券商,121.563547,25.040272
17,大昌,券商,121.457959,25.008462
18,大昌-樹林,券商,121.422666,24.994423
19,大昌-安康,券商,121.517045,24.965247
20,大昌-新竹,券商,120.968301,24.806588
21,大昌-新店,券商,121.543077,24.974149
22,大昌-桃園,券商,121.306343,25.015716
23,大展,券商,121.517065,25.050153
24,大慶,券商,121.53569,25.057707
25,大慶-蘆洲,券商,121.475479,25.081491
26,大慶-楊梅,券商,121.147139,24.907989
27,大慶-泰山,券商,121.432734,25.061405
28,大慶-高雄,券商,120.299958,22.618041
29,大慶-苗栗,券商,120.823956,24.565902
30,大慶-中壢,券商,121.206652,24.95662
31,大慶-基隆,券商,121.745265,25.131951
32,大慶-台南,券商,120.196541,23.001448
33,大慶-台中,券商,120.685655,24.171122
34,大慶-中和,券商,121.511923,24.990735
35,大慶-富順,券商,121.497485,25.067048
36,大慶-長榮,券商,121.461481,25.084624
37,中國信託,券商,121.616179,25.058917
38,中國信託-三重,券商,121.486534,25.058489
39,中國信託-忠孝,券商,121.518144,25.045821
40,中國信託-永康,券商,120.232675,23.010051
41,中國信託-文心,券商,120.693417,24.171561
42,中國信託-新竹,券商,120.978393,24.808752
43,中國信託-松江,券商,121.532916,25.058171
44,中國信託-嘉義,券商,120.446029,23.47971
45,中國信託-雙和,券商,121.514729,24.996573
46,中國信託-中壢,券商,121.22562,24.95559
47,中國信託-高雄,券商,120.295244,22.629445
48,中國信託-國際證券,券商,121.616179,25.058917
49,中農,券商,120.537532,24.259971
50,元大,券商,121.543673,25.052049
51,元大-松江,券商,121.533289,25.055091
52,元大- 斗六,券商,120.54078,23.708317
53,元大-開元,券商,120.218569,23.006975
54,元大-竹科,券商,121.01984,24.782153
55,元大-南崁,券商,121.291517,25.047923
56,元大-南海,券商,121.517281,25.032779
57,元大-承德,券商,121.518147,25.070588
58,元大-沙鹿,券商,120.559048,24.235986
59,元大-清水,券商,120.57617,24.270216
60,元大-台北,券商,121.513096,25.043075
61,元大-虎尾,券商,120.433797,23.709517
62,元大-府城,券商,120.200413,22.99391
63,元大-西屯,券商,120.647386,24.17085
64,元大-台中,券商,120.680734,24.138387
65,元大-八德,券商,121.551709,25.048081
66,元大-大益,券商,120.196178,22.975949
67,元大-大灣,券商,120.261375,23.005879
68,元大-新竹,券商,120.974939,24.81302
69,元大-東泰,券商,120.341727,22.636424
70,元大-桃園,券商,121.311142,24.992508
71,元大-鶯歌,券商,121.35365,24.956858
72,元大-竹北,券商,121.01033,24.82648
73,元大-路竹,券商,120.25984,22.854514
74,元大-南投,券商,120.685501,23.909896
75,元大-發財,券商,121.453492,25.045241
76,元大-福營,券商,121.422237,25.019055
77,元大-彰化,券商,120.542216,24.074377
78,元大-天母,券商,121.530377,25.110624
79,元大-林園,券商,120.397977,22.502257
80,元大-莒光,券商,120.298788,22.709899
81,元大-苗栗,券商,120.821608,24.559685
82,元大-金門,券商,118.319547,24.438614
83,元大-太平,券商,120.719666,24.129705
84,元大-竹山,券商,120.682531,23.756568
85,元大-崇德,券商,120.685695,24.16986
86,元大-華山,券商,121.526726,25.0442
87,元大-民雄,券商,120.425948,23.55571
88,元大-東門,券商,121.532466,25.035274
89,元大-潮州,券商,120.540451,22.556657
90,元大-歸仁,券商,120.29316,22.966709
91,元大-佳里,券商,120.177899,23.162333
92,元大-大里,券商,120.680535,24.105974
93,元大-屏東民生,券商,120.491845,22.67001
94,元大-西螺,券商,120.460365,23.801316
95,元大-士林,券商,121.525392,25.093343
96,元大-前金,券商,120.296595,22.629352
97,元大-旗山,券商,120.482195,22.887936
98,元大-松山,券商,121.561572,25.051259
99,元大-艋舺,券商,121.499208,25.035923
100,元大-屏南,券商,120.490943,22.677036
101,元大-善化,券商,120.298878,23.129474
102,元大-大統,券商,120.963876,24.798953
103,元大-土城學府,券商,121.458319,24.988361
104,元大-向上,券商,120.661409,24.146894
105,元大-新營,券商,120.318029,23.304821
106,元大-永康,券商,120.23581,22.998792
107,元大-羅東,券商,121.771996,24.679093
108,元大-博愛,券商,120.305552,22.660962
109,元大-六合,券商,120.313018,22.632484
110,元大-忠孝鼎富,券商,121.55628,25.041155
111,元大-四維,券商,120.302411,22.616444
112,元大-敦化,券商,121.549145,25.030622
113,元大-中壢,券商,121.224041,24.957308
114,元大-員林,券商,120.57105,23.955448
115,元大-北港,券商,120.301889,23.568168
116,元大-豐原,券商,120.708849,24.250926
117,元大-林森,券商,120.223406,22.987365
118,元大-上新莊,券商,121.459657,25.04519
119,元大-學甲,券商,120.182554,23.229132
120,元大-木柵,券商,121.56732,24.988333
121,元大-大安,券商,121.546053,25.024875
122,元大-頭份,券商,120.907712,24.685859
123,元大-竹南,券商,120.878857,24.686608
124,元大-大里德芳,券商,120.690353,24.113157
125,元大-鳳山,券商,120.331121,22.5957
126,元大-竹東,券商,121.089327,24.730103
127,元大-大雅,券商,120.647589,24.225155
128,元大-仁愛,券商,121.543892,25.037398
129,元大-新店中正,券商,121.539517,24.972989
130,元大-南勢角,券商,121.512058,24.990981
131,元大-景美,券商,121.541424,24.993604
132,元大-館前,券商,121.51439,25.045914
133,元大-大松山,券商,121.575128,25.040711
134,元大-南屯,券商,120.65071,24.146868
135,元大-台中文心,券商,120.694337,24.170781
136,元大-花蓮,券商,121.601384,23.989722
137,元大-東蘆,券商,121.480071,25.080658
138,元大-龍潭,券商,121.211778,24.863536
139,元大-新竹經國,券商,120.96455,24.8122
140,元大-鳳中,券商,120.352367,22.626812
141,元大-南京,券商,121.543104,25.052067
142,元大-新和平,券商,121.531728,25.02614
143,元大-樹板,券商,121.426717,24.991503
144,元大-北成功,券商,121.591874,25.068678
145,元大-水湳,券商,120.665768,24.173202
146,元大-新盛,券商,121.446502,25.038354
147,元大-基隆孝二,券商,121.740596,25.130153
148,元大-忠孝,券商,121.55628,25.041155
149,元大-復北,券商,121.543836,25.062615
150,元大-西門,券商,121.509061,25.041934
151,元大-雙和,券商,121.506773,24.99951
152,元大-土城永寧,券商,121.442132,24.976223
153,元大-赤崁,券商,120.200413,22.99391
154,元大-板橋三民,券商,121.479069,25.017654
155,元大-楊梅,券商,121.146902,24.910098
156,元大-新壢,券商,121.220252,24.958421
157,元大-鎮北,券商,120.546707,23.711106
158,元大-鑫永和,券商,121.514563,25.009951
159,元大-北員林,券商,120.573166,23.968897
160,元大-藝文,券商,121.29598,25.02353
161,元大-三重,券商,121.491014,25.059743
162,元大-永和,券商,121.521127,25.0077
163,元大-屏東,券商,120.496303,22.685486
164,元大-大天母,券商,121.525004,25.105765
165,元大-北桃園,券商,121.315864,24.991132
166,元大-台南,券商,120.217928,22.984711
167,元大-土城,券商,121.445187,24.985541
168,元大-新莊,券商,121.446523,25.039645
169,元大-淡水,券商,121.440922,25.169566
170,元大-北投,券商,121.49857,25.131039
171,元大-台中中港,券商,120.660124,24.156274
172,元大-板橋,券商,121.460122,25.007961
173,元大-左營,券商,120.289244,22.68381
174,元大-草屯,券商,120.682243,23.974063
175,元大-高雄,券商,120.316654,22.647672
176,元大-大同,券商,121.518721,25.052873
177,元大-蘆洲,券商,121.469865,25.083416
178,元大-彰化民生,券商,120.545905,24.083497
179,元大-成功,券商,121.311142,24.992508
180,元大-內湖,券商,121.593301,25.083048
181,元大-敦南,券商,121.549289,25.040568
182,元大-汐止,券商,121.653788,25.062486
183,元大-鹿港,券商,120.431579,24.055617
184,元大-大甲,券商,120.62267,24.342578
185,元大-北三重,券商,121.496264,25.068209
186,元大-豐原站前,券商,120.722463,24.255044
187,元大-民生,券商,121.564746,25.059764
188,元大-基隆,券商,121.747581,25.129165
189,元大-小港,券商,120.356637,22.567036
190,元大-苑裡,券商,120.652852,24.44029
191,元大-北屯,券商,120.685695,24.16986
192,元大-中和,券商,121.502275,24.999659
193,元大-東港,券商,120.457756,22.470233
194,元大-嘉義,券商,120.44729,23.48344
195,元大-樹林,券商,121.423278,24.991028
196,元大-古亭,券商,121.525367,25.023505
197,元大-信義,券商,121.572342,25.041105
198,元大-國際證券,券商,121.543673,25.052049
199,元大期貨,券商,121.543673,25.052049
200,元富,券商,121.543949,25.039444
201,元富-高雄,券商,120.296597,22.641895
202,元富-新店,券商,121.544891,24.979765
203,元富-三重,券商,121.498043,25.062408
204,元富-台中,券商,120.658015,24.13988
205,元富-四維,券商,120.300411,22.616372
206,元富-林園,券商,120.392876,22.499896
207,元富-新莊,券商,121.444418,25.043004
208,元富-台南,券商,120.202501,22.991244
209,元富-緯城,券商,120.303233,22.651226
210,元富-永和,券商,121.515927,24.997278
211,元富-潮州,券商,120.537713,22.547082
212,元富-大昌,券商,120.327557,22.639398
213,元富-城中,券商,121.517065,25.050153
214,元富-新竹,券商,120.970509,24.802983
215,元富-信義,券商,121.527681,25.03422
216,元富-嘉義,券商,120.45192,23.47436
217,元富-中壢,券商,121.226598,24.961207
218,元富-虎尾,券商,120.436919,23.70979
219,元富-同大,券商,120.295451,22.796244
220,元富-敦南,券商,121.552764,25.041229
221,元富-基隆,券商,121.744251,25.129168
222,元富-宜蘭,券商,121.755703,24.759117
223,元富-民權,券商,121.521849,25.062981
224,元富-吉利,券商,121.504031,25.11766
225,元富-草屯,券商,120.685114,23.979154
226,元富-埔里,券商,120.964257,23.96647
227,元富-安南,券商,120.185157,23.047042
228,元富-松德,券商,121.577299,25.039411
229,元富-板橋,券商,121.463628,25.01123
230,元富-烏日,券商,120.829404,24.258353
231,元富-延平,券商,121.523775,25.049447
232,元富-古亭,券商,121.525183,25.023067
233,元富-國際證券,券商,121.549183,25.028808
234,元富-中原,券商,120.705129,24.210649
235,元富-中港,券商,120.576445,24.270856
236,元富-大裕,券商,120.683598,24.123552
237,元富-成功,券商,120.196228,23.001268
238,元富-西松,券商,121.562139,25.051248
239,元富-新興,券商,120.309461,22.633842
240,元富-城東,券商,121.533728,25.052227
241,元富-世貿,券商,121.560614,25.032831
242,元富-桃園,券商,121.313772,24.993299
243,元富-佳里,券商,120.177899,23.162333
244,元富-文心,券商,120.648588,24.161799
245,日茂,券商,120.681831,23.976856
246,日茂-埔里,券商,120.969733,23.97295
247,日茂-南投,券商,120.689885,23.904333
248,日茂-霧峰,券商,120.698302,24.064361
249,日盛,券商,121.533427,25.052281
250,日盛-忠孝,券商,121.513136,25.046588
251,日盛-台南,券商,120.211231,22.998332
252,日盛-台中,券商,120.658023,24.157501
253,日盛-內湖,券商,121.587023,25.068859
254,日盛-板橋,券商,121.458842,25.008597
255,日盛-雙和,券商,121.510193,25.001498
256,日盛-嘉義,券商,120.43783,23.467929
257,日盛-高雄,券商,120.291605,22.631516
258,日盛-士林,券商,121.525823,25.092753
259,日盛-木柵,券商,121.56732,24.988333
260,日盛-中壢,券商,121.225123,24.957608
261,日盛-八德,券商,121.299708,24.959934
262,日盛-三重,券商,121.498043,25.062408
263,日盛-員林,券商,120.570705,23.957346
264,日盛-景美,券商,121.540634,24.991821
265,日盛-新竹,券商,120.9727,24.804292
266,日盛-南京,券商,121.529445,25.051881
267,日盛-板橋中山,券商,121.479068,25.019361
268,日盛-大墩,券商,120.649548,24.153053
269,日盛-永康,券商,120.233762,22.99876
270,日盛-信義,券商,121.557259,25.028874
271,日盛-二林,券商,120.367469,23.899975
272,日盛-新莊,券商,121.44601,25.034631
273,日盛-桃園,券商,121.202211,24.968838
274,日盛-斗六,券商,120.541051,23.708729
275,日盛-鳳山,券商,120.362378,22.625268
276,日盛-宜蘭,券商,121.753373,24.761013
277,日盛-中和,券商,121.500112,25.0016
278,日盛-園區,券商,120.994757,24.801203
279,日盛-豐原,券商,120.719728,24.253464
280,日盛-三峽,券商,121.372277,24.935911
281,日盛-竹北,券商,121.019206,24.83387
282,日盛-復興,券商,121.544229,25.050474
283,日盛-龍潭,券商,121.216077,24.870678
284,日盛-樹林,券商,121.423088,24.991153
285,日盛-頭份,券商,120.907409,24.68567
286,日盛-北高雄,券商,120.29503,22.668147
287,日盛-和美,券商,120.499921,24.110627
288,日盛-文化,券商,121.471258,25.027393
289,日盛-土城,券商,121.441616,24.974302
290,日盛-國際證券,券商,121.533427,25.052281
291,日進,券商,120.821989,24.560316
292,北城,券商,121.515216,25.01207
293,台中銀,券商,120.681516,24.137792
294,台中銀-員林,券商,120.572241,23.95887
295,台中銀-復興,券商,121.544229,25.050474
296,台中銀-中壢,券商,121.223491,24.95969
297,台中銀-豐原,券商,120.71762,24.251778
298,台新,券商,121.522507,25.055199
299,台新-復興,券商,121.543683,25.04718
300,台新-新莊,券商,121.425892,25.023109
301,台新-松山,券商,121.557712,25.050709
302,台新-三民,券商,120.333467,22.642766
303,台新-左楠,券商,120.293004,22.71064
304,台新-松江,券商,121.532814,25.052326
305,台新-台南,券商,120.204021,23.003755
306,台新-高雄,券商,120.305121,22.613337
307,台新-台中,券商,120.652782,24.141155
308,台新-五權,券商,120.647268,24.139779
309,台新-屏東,券商,120.499588,22.673407
310,台新-新板,券商,121.465554,25.011735
311,台新-前鎮,券商,120.307321,22.60773
312,台新-中壢,券商,121.224952,24.955611
313,台新-鳳山,券商,120.361618,22.624613
314,台新-新營,券商,120.318303,23.30495
315,台灣企銀,券商,121.510288,25.051169
316,台灣企銀-台中,券商,120.71735,24.251968
317,台灣企銀-台南,券商,120.198026,22.992701
318,台灣企銀-九如,券商,120.306533,22.640792
319,台灣企銀-嘉義,券商,120.45107,23.479199
320,台灣企銀-竹北,券商,121.009693,24.826725
321,台灣企銀-豐原,券商,120.715351,24.251532
322,台灣企銀-岡山,券商,120.295879,22.795321
323,台灣企銀-民雄,券商,120.439757,23.521445
324,台灣企銀-建成,券商,121.518406,25.052949
325,台灣企銀-三民,券商,120.301593,22.632742
326,臺灣企銀-台北,券商,121.513097,25.043399
327,臺灣企銀-桃園,券商,121.199291,25.067468
328,台灣企銀-北高雄,券商,120.308723,22.634651
329,臺灣企銀-埔墘,券商,121.473996,25.015709
330,台灣匯立,券商,121.54931,25.029236
331,台灣摩根士丹利,券商,121.549255,25.026009
332,永全,券商,121.303,24.993787
333,永全-南崁,券商,121.29025,25.044547
334,永全-八德,券商,121.300978,24.966308
335,永興,券商,121.517011,25.032492
336,永興-水湳,券商,120.666064,24.182597
337,永興-台中,券商,120.687664,24.156206
338,永興-大墩,券商,120.649974,24.15399
339,永豐金,券商,121.513135,25.046859
340,永豐金-鳳山,券商,120.335784,22.603596
341,永豐金-五權,券商,120.65603,24.13982
342,永豐金-埔里,券商,120.965557,23.966432
343,永豐金-數位,券商,121.555065,25.041608
344,永豐金-國際證券,券商,121.513135,25.046859
345,永豐金-敦北,券商,121.548501,25.051354
346,永豐金-敦南,券商,121.550012,25.027106
347,永豐金-松山,券商,121.577611,25.047691
348,永豐金-萬盛,券商,121.533274,25.053815
349,永豐金-大稻埕,券商,121.512912,25.056895
350,永豐金-博愛,券商,121.511594,25.044357
351,永豐金-新竹,券商,120.967308,24.808102
352,永豐金-大園,券商,121.197042,25.066319
353,永豐金-中壢,券商,121.224709,24.959591
354,永豐金-羅東,券商,121.771957,24.677885
355,永豐金-中和,券商,121.510636,25.001991
356,永豐金-員林,券商,120.579821,23.963107
357,永豐金-忠孝,券商,121.555463,25.041169
358,永豐金-板橋,券商,121.460907,25.009003
359,永豐金-安和,券商,121.542145,25.033622
360,永豐金-天母,券商,121.527261,25.104804
361,永豐金-新莊,券商,121.452171,25.045812
362,永豐金-板新,券商,121.471031,25.027958
363,永豐金-三重,券商,121.485945,25.064941
364,永豐金-台中,券商,120.709631,24.250508
365,永豐金-南投,券商,120.687789,23.907057
366,永豐金-桃盛,券商,121.297134,25.017871
367,永豐金-竹北,券商,121.010098,24.827898
368,永豐金-豐原,券商,120.718349,24.250154
369,永豐金-信義,券商,121.551081,25.033417
370,永豐金-南京,券商,121.538259,25.05178
371,永豐金-中正,券商,121.523775,25.049447
372,永豐金-三民,券商,120.29602,22.641929
373,永豐金-市政,券商,120.639556,24.15913
374,永豐金-竹科,券商,120.989541,24.800065
375,永豐金-板盛,券商,121.468047,25.012823
376,永豐金-復興,券商,121.542196,25.062549
377,永豐金-苓雅,券商,120.305121,22.613337
378,永豐金-虎尾,券商,120.435917,23.707401
379,永豐金-永康,券商,120.232845,23.009827
380,永豐金-古亭,券商,121.517931,25.030107
381,永豐金-高雄,券商,120.328081,22.629694
382,永豐金-中盛,券商,120.646351,24.156745
383,永豐金-內湖,券商,121.559589,25.085128
384,永豐金-台南,券商,120.197277,22.986222
385,永豐金-新店,券商,121.542927,24.978014
386,永豐金-嘉義,券商,120.446029,23.47971
387,永豐金-桃中,券商,121.303364,24.994427
388,永豐金-府城,券商,120.205654,22.994679
389,永豐金-潮州,券商,120.540374,22.551912
390,永豐金-北高雄,券商,120.296905,22.660478
391,永豐金-光復,券商,121.557481,25.043464
392,永豐金-桃園,券商,121.30792,24.990936
393,玉山,券商,121.547604,25.057396
394,玉山-雙和,券商,121.506474,25.007144
395,玉山-新莊,券商,121.460415,25.051093
396,玉山-高雄,券商,120.339905,22.637293
397,玉山-松江,券商,121.53287,25.055377
398,玉山-仁愛,券商,121.525367,25.038104
399,玉山-土城,券商,121.451029,24.986515
400,玉山-台南,券商,120.224104,22.980512
401,玉山-嘉義,券商,120.44288,23.47941
402,玉山-台大,券商,121.533978,25.014786
403,玉山-士林,券商,121.524145,25.095079
404,玉山-台中,券商,120.640227,24.158809
405,玉山-南京東路,券商,121.560212,25.051701
406,玉山-左營,券商,120.303599,22.667764
407,玉山-城中,券商,121.509665,25.044232
408,玉山-桃園,券商,121.30494,25.00486
409,玉山-新竹,券商,121.011979,24.785481
410,玉山-大里,券商,120.679766,24.108785
411,玉山-國際證券,券商,121.547604,25.057396
412,石橋,券商,121.206494,24.952791
413,光和,券商,120.524275,23.873352
414,光和-溪湖,券商,120.481025,23.962145
415,光和-田中,券商,120.586499,23.859546
416,光和-和美,券商,120.500556,24.109846
417,光和-花壇,券商,120.537435,24.026015
418,光和-虎尾,券商,120.434312,23.71195
419,光隆,券商,121.610761,23.976696
420,兆豐,券商,121.530983,25.043042
421,兆豐-嘉義,券商,120.448629,23.48366
422,兆豐-台中,券商,120.65603,24.13982
423,兆豐-台中港,券商,120.558761,24.235078
424,兆豐-台南,券商,120.202823,22.991219
425,兆豐-竹北,券商,121.018103,24.83447
426,兆豐-三重,券商,121.496264,25.068209
427,兆豐-景美,券商,121.541484,24.993043
428,兆豐-板橋,券商,121.467135,25.020903
429,兆豐-來福,券商,120.541858,23.711469
430,兆豐-西螺,券商,120.461025,23.799873
431,兆豐-斗南,券商,120.478132,23.676487
432,兆豐-虎尾,券商,120.432722,23.709313
433,兆豐-麻豆,券商,120.251407,23.18382
434,兆豐-東門,券商,121.527257,25.03284
435,兆豐-北高雄,券商,120.292762,22.628062
436,兆豐-公益,券商,120.664167,24.153887
437,兆豐-新營,券商,120.318861,23.305447
438,兆豐-天母,券商,121.525004,25.105765
439,兆豐-桃園,券商,121.313861,24.99305
440,兆豐-埔墘,券商,121.479069,25.018974
441,兆豐-南京,券商,121.538389,25.052168
442,兆豐-小港,券商,120.356637,22.567036
443,兆豐-大同,券商,121.512912,25.056895
444,兆豐-桃鶯,券商,121.319545,24.98133
445,兆豐-新竹,券商,120.967308,24.808102
446,兆豐-城中,券商,121.513135,25.046859
447,兆豐-永和,券商,121.506474,25.007144
448,兆豐-高雄,券商,120.301991,22.611692
449,兆豐-忠孝,券商,121.564019,25.041454
450,兆豐-中壢,券商,121.224825,24.955974
451,兆豐-民生,券商,121.545997,25.057521
452,兆豐-彰化,券商,120.540189,24.080245
453,兆豐-鹿港,券商,120.437819,24.049788
454,兆豐-南門,券商,121.521338,25.028901
455,兆豐-三民,券商,120.327389,22.640348
456,兆豐-松德,券商,121.578819,25.04115
457,兆豐-大安,券商,121.542489,25.033165
458,兆豐-員林,券商,120.570705,23.957346
459,兆豐-國際證券,券商,121.530983,25.043042
460,兆豐-復興,券商,121.54428,25.052848
461,兆豐-內湖,券商,121.593301,25.083048
462,兆豐-寶成,券商,120.623806,24.179341
463,兆豐-岡山,券商,120.299242,22.79389
464,兆豐-新莊,券商,121.459597,25.053101
465,全泰,券商,121.306313,24.99211
466,合庫,券商,121.556327,25.041587
467,合庫- 台中,券商,120.679329,24.138023
468,合庫-台南,券商,120.207852,22.998048
469,合庫-高雄,券商,120.284153,22.624859
470,合庫-嘉義,券商,120.44831,23.480499
471,合庫-基隆,券商,121.742435,25.129791
472,合庫 - 彰化,券商,120.542261,24.082015
473,合庫 - 鳳山,券商,120.360769,22.631981
474,合庫-新竹,券商,120.9727,24.804292
475,合庫-自強,券商,121.531803,25.05225
476,合庫-桃園,券商,121.311505,24.991278
477,合庫-西台中,券商,120.661576,24.165313
478,合庫-三重,券商,121.498007,25.061444
479,安泰,券商,120.324466,22.588705
480,安泰-大發,券商,120.398235,22.603297
481,安泰-楠梓,券商,120.333168,22.729661
482,宏遠,券商,121.55309,25.032972
483,宏遠-民生,券商,121.564761,25.059581
484,宏遠-桃園,券商,121.202642,24.967683
485,宏遠-南京,券商,121.555708,25.051394
486,宏遠-台南,券商,120.20273,22.992332
487,宏遠-中和,券商,121.482913,25.001311
488,宏遠-台中,券商,120.646305,24.15414
489,宏遠-高雄,券商,120.313715,22.630302
490,宏遠-館前,券商,121.51136,25.044671
491,宏遠-新化,券商,120.308455,23.035931
492,亞東,券商,121.513096,25.043075
493,亞東-板橋,券商,121.451087,24.995065
494,亞東-新竹,券商,121.012862,24.785218
495,亞東-台南,券商,120.221626,22.985519
496,亞東-高雄,券商,120.305121,22.613337
497,亞東-台中,券商,120.683757,24.141871
498,亞東-國際證券,券商,121.513096,25.043075
499,法銀巴黎,券商,121.564604,25.033524
500,花旗環球,券商,121.566081,25.038775
501,金港,券商,120.324797,22.620387
502,金港-博愛,券商,120.303555,22.665424
503,信富,券商,120.244784,23.465506
504,盈溢,券商,120.300567,22.634886
505,盈溢-籬子內,券商,120.335143,22.609331
506,盈溢-楠梓,券商,120.326524,22.726227
507,美林,券商,121.549255,25.026009
508,美商高盛,券商,121.549255,25.026009
509,致和,券商,120.201671,22.999987
510,致和-台北,券商,121.547832,25.033089
511,致和-佳里,券商,120.175033,23.159217
512,致和-府前,券商,120.207487,22.988866
513,致和-金華,券商,120.191584,22.979759
514,致和-東門,券商,121.530537,25.033844
515,致和-高雄,券商,120.315371,22.62527
516,致和-南京,券商,121.563747,25.051213
517,致和-崇德,券商,120.224707,22.976127
518,香港上海匯豐,券商,121.561111,25.034254
519,高橋,券商,121.22217,24.953759
520,高橋-龍潭,券商,121.217659,24.859763
521,高橋-中壢,券商,121.222971,24.957052
522,高橋-內壢,券商,121.25485,24.976665
523,國泰,券商,121.549122,25.021996
524,國泰-高雄,券商,120.308432,22.630586
525,國泰-台中,券商,120.673672,24.14264
526,國泰-松江,券商,121.532826,25.053107
527,國泰-台南,券商,120.203286,22.993431
528,國泰-桃園,券商,121.29754,25.017595
529,國泰-新莊,券商,121.445964,25.034627
530,國泰-忠孝,券商,121.554976,25.041609
531,國泰-敦南,券商,121.549122,25.022065
532,國泰-館前,券商,121.51513,25.044298
533,國泰-板橋,券商,121.479069,25.018974
534,國泰-國際證券,券商,121.549122,25.022065
535,國票,券商,121.51396,25.069586
536,國票-台東,券商,121.152829,22.753717
537,國票-北投,券商,121.49857,25.131039
538,國票-南港,券商,121.606444,25.055026
539,國票-中正,券商,120.292846,22.628088
540,國票-內壢,券商,121.258267,24.973711
541,國票-台南,券商,120.205387,22.998813
542,國票-南崁,券商,121.291713,25.047633
543,國票-新莊,券商,121.452113,25.036826
544,國票-嘉義,券商,120.447149,23.47383
545,國票-北高雄,券商,120.304516,22.664408
546,國票-九鼎,券商,120.694208,24.165379
547,國票-天祥,券商,120.319014,22.667866
548,國票-彰化,券商,120.529559,24.079245
549,國票-中和,券商,121.51116,24.988859
550,國票-安和,券商,121.556017,25.032909
551,國票-國際證券,券商,121.563747,25.051213
552,國票-敦北法人,券商,121.548091,25.051562
553,國票-南科,券商,120.295349,23.079787
554,國票-和平,券商,120.321284,22.621231
555,國票-南京,券商,121.563747,25.051213
556,國票-桃園,券商,121.31168,24.993496
557,國票-長城,券商,121.555758,25.037406
558,國票-台中,券商,120.646351,24.156745
559,國票-博愛,券商,121.511225,25.045884
560,康和,券商,121.565209,25.042814
561,康和-延平,券商,121.509851,25.053203
562,康和-台中,券商,120.677632,24.153715
563,康和-新竹,券商,120.961181,24.800677
564,康和-台南,券商,120.195252,22.995194
565,康和-嘉義,券商,120.44365,23.46819
566,康和-內湖,券商,121.590559,25.080933
567,康和-永和,券商,121.517753,24.999348
568,康和-板橋,券商,121.479068,25.019361
569,康和-澎湖,券商,119.572245,23.570999
570,康和-仁愛,券商,121.547936,25.038326
571,康和-高雄,券商,120.308432,22.630586
572,康和-石牌,券商,121.511751,25.11373
573,康和-南崁,券商,121.296212,25.045383
574,康和-台北,券商,121.544292,25.053552
575,康和-國際證券,券商,121.565209,25.042814
576,第一金,券商,121.524686,25.048769
577,第一金-員林,券商,120.579821,23.963107
578,第一金-台中,券商,120.663676,24.146975
579,第一金-高雄,券商,120.332641,22.62816
580,第一金-台南,券商,120.211053,22.986087
581,第一金-桃園,券商,121.30967,24.99016
582,第一金-彰化,券商,120.540565,24.079913
583,第一金-澎湖,券商,119.570331,23.57123
584,第一金-中山,券商,121.52297,25.056093
585,第一金-新興,券商,120.301049,22.630862
586,第一金-新竹,券商,120.967686,24.806692
587,第一金-光復,券商,121.557671,25.048853
588,第一金-忠孝,券商,121.52945,25.04304
589,第一金-自由,券商,120.67941,24.137141
590,第一金-大稻埕,券商,121.510101,25.055779
591,第一金-中和,券商,121.501549,25.003081
592,第一金-頭份,券商,120.908214,24.68529
593,第一金-嘉義,券商,120.45017,23.479749
594,第一金-豐原,券商,120.71529,24.247328
595,第一金-路竹,券商,120.261527,22.85443
596,第一金-灣內,券商,120.326634,22.64234
597,第一金-華江,券商,121.466306,25.020667
598,第一金-中壢,券商,121.217549,24.958227
599,第一金-國際證券,券商,121.524686,25.048769
600,第一金-安和,券商,121.550372,25.039169
601,統一,券商,121.565188,25.050298
602,統一-高雄,券商,120.308432,22.630586
603,統一-敦南,券商,121.549122,25.028461
604,統一-中壢,券商,121.22611,24.958359
605,統一-城中,券商,121.511375,25.044544
606,統一-台南,券商,120.263011,23.235195
607,統一-台中,券商,120.65603,24.13982
608,統一-新竹,券商,120.96284,24.806307
609,統一-嘉義,券商,120.44803,23.483799
610,統一-屏東,券商,120.490943,22.677036
611,統一-基隆,券商,121.74453,25.12787
612,統一-永和,券商,121.514123,25.007711
613,統一-新台中,券商,120.647283,24.1596
614,統一-新營,券商,120.318693,23.30507
615,統一-彰化,券商,120.542216,24.074377
616,統一-桃園,券商,121.311142,24.992508
617,統一-員林,券商,120.572607,23.962795
618,統一-三重,券商,121.488758,25.057753
619,統一-豐原,券商,120.717321,24.253132
620,統一-士林,券商,121.523627,25.082777
621,統一-板橋,券商,121.458462,25.008236
622,統一-三多,券商,120.301328,22.616088
623,統一-汐止,券商,121.632435,25.065239
624,統一-宜蘭,券商,121.745492,24.751013
625,統一-南京,券商,121.54458,25.051642
626,統一-古亭,券商,121.521435,25.026655
627,統一-金門,券商,118.317848,24.43673
628,統一-土城,券商,121.452053,24.986094
629,統一-松江,券商,121.533354,25.053576
630,統一-內湖,券商,121.572655,25.081168
631,統一-仁愛,券商,121.550424,25.03913
632,統一-新店,券商,121.542907,24.978334
633,統一-新莊,券商,121.444503,25.052712
634,統一-平鎮,券商,121.211696,24.959125
635,統一-新桃園,券商,121.30669,25.001878
636,統一-竹南,券商,120.873801,24.68353
637,統一-國際證券,券商,121.565188,25.050298
638,凱基,券商,121.551506,25.084876
639,凱基-中港,券商,120.674211,24.147801
640,凱基-台中,券商,120.681239,24.138366
641,凱基-三重,券商,121.496247,25.067375
642,凱基-高雄,券商,120.318386,22.630465
643,凱基-永和,券商,121.517152,25.006833
644,凱基-桃園,券商,121.311142,24.992508
645,凱基-岡山,券商,120.293008,22.799406
646,凱基-板橋,券商,121.459866,25.005088
647,凱基-雙和,券商,121.506773,24.99951
648,凱基-市府,券商,121.564019,25.041454
649,凱基-東門,券商,120.221661,22.985655
650,凱基-站前,券商,121.516958,25.045725
651,凱基-基隆,券商,121.748746,25.128156
652,凱基-湖口,券商,121.045452,24.903319
653,凱基-新店,券商,121.541848,24.981318
654,凱基-大里,券商,120.688813,24.104216
655,凱基-台東,券商,121.151476,22.756444
656,凱基-台南,券商,120.221626,22.985519
657,凱基-東港,券商,120.457948,22.470261
658,凱基-高美館,券商,120.289421,22.661542
659,凱基-信義,券商,121.544306,25.053898
660,凱基-松山,券商,121.576419,25.049872
661,凱基-大直,券商,121.551241,25.080819
662,凱基-民權,券商,121.543836,25.062615
663,凱基-三峽,券商,121.372277,24.935911
664,凱基-天母,券商,121.53086,25.119016
665,凱基-五股,券商,121.438629,25.082899
666,凱基-南京,券商,121.539295,25.052147
667,凱基-土城,券商,121.468154,24.98778
668,凱基-八德,券商,121.298865,24.954267
669,凱基-幸福,券商,121.453492,25.045241
670,凱基-東勢,券商,120.829918,24.252624
671,凱基-豐中,券商,120.722463,24.255044
672,凱基-新莊,券商,121.423942,25.02398
673,凱基-內埔,券商,120.565287,22.618333
674,凱基-汐止,券商,121.656395,25.065097
675,凱基-城中,券商,121.511521,25.045027
676,凱基-中山,券商,121.522588,25.056825
677,凱基-屏東,券商,120.494518,22.669806
678,凱基-復興,券商,121.544306,25.053898
679,凱基-員林,券商,120.570924,23.962076
680,凱基-建成,券商,121.524669,25.05195
681,凱基-長庚,券商,121.36471,25.057731
682,凱基-竹北,券商,121.014354,24.833499
683,凱基-永華,券商,120.1964,22.987594
684,凱基-虎尾,券商,120.433065,23.709326
685,凱基-敦北,券商,121.548501,25.051354
686,凱基-士林,券商,121.525392,25.093343
687,凱基-市政,券商,120.639556,24.15913
688,凱基-七賢,券商,120.309702,22.633842
689,凱基-嘉義,券商,120.443929,23.47351
690,凱基-科園,券商,121.019595,24.782126
691,凱基-和平,券商,121.522493,25.026638
692,凱基-南崁,券商,121.292154,25.047695
693,凱基-林口,券商,121.375209,25.077895
694,凱基-羅東,券商,121.77191,24.679545
695,凱基-澄新,券商,120.346062,22.6414
696,凱基-平鎮,券商,121.209038,24.944665
697,凱基-新豐,券商,120.995439,24.872339
698,凱基-台北,券商,121.53511,25.052216
699,凱基-永春,券商,121.579948,25.041826
700,凱基-竹科,券商,120.966462,24.809628
701,凱基-竹東,券商,121.085354,24.742121
702,凱基-鳳山,券商,120.361413,22.624787
703,凱基-三多,券商,120.301717,22.61354
704,凱基-永康,券商,120.255612,23.025379
705,凱基-斗六,券商,120.547798,23.7098
706,凱基-北門,券商,120.211372,22.992287
707,凱基-中壢,券商,121.226386,24.965997
708,凱基-內湖,券商,121.600036,25.084868
709,凱基-埔墘,券商,121.479069,25.018974
710,凱基-興隆,券商,121.556355,25.000154
711,凱基-大安,券商,121.550935,25.029537
712,凱基-西屯,券商,120.666178,24.170434
713,凱基-頭份,券商,120.907026,24.685386
714,凱基-文心,券商,120.693417,24.171561
715,凱基-延平,券商,121.511517,25.056516
716,凱基-國際證券,券商,121.551506,25.084876
717,富邦,券商,121.552283,25.03817
718,富邦-溪湖,券商,120.482355,23.962054
719,富邦-陽明,券商,121.517167,25.113458
720,富邦-國際證券,券商,121.552283,25.03817
721,富邦-基隆,券商,121.747435,25.129231
722,富邦-木柵,券商,121.56732,24.988333
723,富邦-岡山,券商,120.297511,22.797955
724,富邦-大同,券商,121.519576,25.052675
725,富邦-花蓮,券商,121.60706,23.982279
726,富邦-園區,券商,121.011875,24.785592
727,富邦-台北,券商,121.516958,25.045725
728,富邦-竹北,券商,121.005937,24.82891
729,富邦-竹東,券商,121.087836,24.738997
730,富邦-內湖,券商,121.5697,25.081699
731,富邦-羅東,券商,121.770858,24.684525
732,富邦-新竹華信,券商,120.967895,24.806291
733,富邦-民生,券商,121.547113,25.057518
734,富邦-世貿,券商,121.555443,25.033325
735,富邦-永和,券商,121.506474,25.007144
736,富邦-板橋,券商,121.467035,25.020776
737,富邦-苗栗,券商,120.822551,24.560846
738,富邦-建國,券商,121.536537,25.060058
739,富邦-高雄,券商,120.312825,22.632014
740,富邦-台中,券商,120.662833,24.165543
741,富邦-新店,券商,121.542927,24.978014
742,富邦-敦南,券商,121.548483,25.045582
743,富邦-天母,券商,121.532597,25.117916
744,富邦-桃園,券商,121.30669,25.001878
745,富邦-南屯,券商,120.639366,24.142208
746,富邦-台南,券商,120.191812,22.996558
747,富邦-左營,券商,120.303586,22.666613
748,富邦-八德,券商,121.551561,25.048082
749,富邦-員林,券商,120.566999,23.966764
750,富邦-仁愛,券商,121.538486,25.037312
751,富邦-三重,券商,121.495231,25.070319
752,富邦-北投,券商,121.501515,25.133559
753,富邦-延吉,券商,121.555758,25.037406
754,富邦-市政,券商,120.637356,24.163599
755,富邦-重慶,券商,121.462051,25.002065
756,富邦-嘉義,券商,120.44523,23.48293
757,富邦-新營,券商,120.303184,23.30525
758,富邦-民雄,券商,120.424212,23.557531
759,富邦-虎尾,券商,120.432722,23.709313
760,富邦-北港,券商,120.301889,23.568168
761,富隆,券商,121.546149,25.051998
762,富隆-長安,券商,121.523675,25.049246
763,港商法國興業,券商,121.566694,25.040648
764,港商野村,券商,121.566081,25.038775
765,港商麥格理,券商,121.543683,25.04718
766,港商德意志,券商,121.55372,25.03741
767,華南永昌,券商,121.550915,25.057734
768,華南永昌-台中,券商,120.651218,24.139714
769,華南永昌-高雄,券商,120.296165,22.621763
770,華南永昌-新莊,券商,121.452633,25.045093
771,華南永昌-台南,券商,120.184329,22.993355
772,華南永昌-大安,券商,121.543397,25.034935
773,華南永昌-麻豆,券商,120.247373,23.183824
774,華南永昌-古亭,券商,121.524071,25.02521
775,華南永昌-民權,券商,120.313447,22.61148
776,華南永昌-嘉義,券商,120.44972,23.477879
777,華南永昌-苑裡,券商,120.655606,24.442436
778,華南永昌-淡水,券商,121.444231,25.169277
779,華南永昌-林口,券商,121.391251,25.078323
780,華南永昌-鶯歌,券商,121.350414,24.954462
781,華南永昌-公誠,券商,121.743069,25.129377
782,華南永昌-小港,券商,120.355324,22.567043
783,華南永昌-岡山,券商,120.287188,22.793392
784,華南永昌-忠孝,券商,121.531803,25.042399
785,華南永昌-南京,券商,121.543673,25.052049
786,華南永昌-斗六,券商,120.543357,23.710687
787,華南永昌-潮州,券商,120.538317,22.549178
788,華南永昌-朴子,券商,120.241496,23.463971
789,華南永昌-鳳山,券商,120.357262,22.624193
790,華南永昌-楠梓,券商,120.327929,22.732177
791,華南永昌-長虹,券商,121.76985,24.67831
792,華南永昌-世貿,券商,121.557942,25.029865
793,華南永昌-內壢,券商,121.254721,24.962101
794,華南永昌-竹北,券商,121.027114,24.821501
795,華南永昌-頭份,券商,120.911153,24.688184
796,華南永昌-敦南,券商,121.548289,25.041747
797,華南永昌-合泰,券商,121.460122,25.007961
798,華南永昌-桃園,券商,121.30797,24.991212
799,華南永昌-東勢,券商,120.829196,24.259118
800,華南永昌-中正,券商,121.513105,25.044854
801,華南永昌-苗栗,券商,120.818989,24.55518
802,華南永昌-彰化,券商,120.540908,24.079498
803,華南永昌-和平,券商,121.532235,25.026492
804,華南永昌-三重,券商,121.48186,25.08061
805,華南永昌-虎尾,券商,120.438675,23.709706
806,華南永昌-斗南,券商,120.479136,23.673207
807,華南永昌-北港,券商,120.301593,23.568411
808,華南永昌-國際證券,券商,121.550915,25.057734
809,陽信,券商,121.564136,25.0592
810,陽信-石牌,券商,121.511874,25.113796
811,新加坡商瑞銀,券商,121.568865,25.038264
812,新光,券商,121.513098,25.043609
813,新光-台中,券商,120.660899,24.140332
814,新光 - 高雄,券商,120.301995,22.612777
815,新光 - 新竹,券商,121.033028,24.814022
816,新光-台南,券商,120.224833,22.984337
817,新光--桃園,券商,121.313699,24.992343
818,新百王,券商,120.298007,22.6231
819,瑞士信貸,券商,121.54518,25.058077
820,萬泰,券商,120.44447,23.47537
821,萬通,券商,121.533402,25.061174
822,群益金鼎,券商,121.568693,25.035962
823,群益金鼎-敦南,券商,121.549184,25.028912
824,群益金鼎-松山,券商,121.555708,25.051394
825,群益金鼎-高盛,券商,120.30174,22.620253
826,群益金鼎-海山,券商,121.457959,25.008462
827,群益金鼎-大興,券商,121.554847,25.041186
828,群益金鼎-民權,券商,120.679329,24.138023
829,群益金鼎-開元,券商,120.222382,23.008386
830,群益金鼎-經國,券商,120.965338,24.812712
831,群益金鼎-西松,券商,121.564007,25.051608
832,群益金鼎-士林,券商,121.529062,25.096177
833,群益金鼎-中港,券商,120.533761,24.263549
834,群益金鼎-信義,券商,121.577607,25.047512
835,群益金鼎-潭子,券商,120.701401,24.214283
836,群益金鼎-基隆,券商,121.742435,25.129791
837,群益金鼎-屏東,券商,120.487095,22.671327
838,群益金鼎-萬華,券商,121.494533,25.027387
839,群益金鼎-土城,券商,121.445126,24.985453
840,群益金鼎-北高雄,券商,120.301146,22.663309
841,群益金鼎-崇德,券商,120.685811,24.17989
842,群益金鼎-館前,券商,121.515124,25.044962
843,群益金鼎-南三重,券商,121.49839,25.059522
844,群益金鼎-高雄,券商,120.290875,22.623031
845,群益金鼎-台中,券商,120.65848,24.155729
846,群益金鼎-台南,券商,120.197068,22.995322
847,群益金鼎-新竹,券商,120.96284,24.806307
848,群益金鼎-彰化,券商,120.542261,24.082015
849,群益金鼎-三民,券商,120.341396,22.640677
850,群益金鼎-桃園,券商,121.311142,24.992508
851,群益金鼎-中壢,券商,121.226435,24.955347
852,群益金鼎-板橋,券商,121.479069,25.018974
853,群益金鼎-古亭,券商,121.520866,25.027142
854,群益金鼎-東門,券商,120.211394,22.991828
855,群益金鼎-南京,券商,121.530837,25.052253
856,群益金鼎-新店,券商,121.542927,24.978014
857,群益金鼎-新莊,券商,121.45346,25.051186
858,群益金鼎-中山,券商,121.525394,25.057734
859,群益金鼎-永和,券商,121.514628,25.007332
860,群益金鼎-東湖,券商,121.606273,25.073701
861,群益金鼎-建成,券商,120.687926,24.130483
862,群益金鼎-嘉義,券商,120.458659,23.474409
863,群益金鼎-天母,券商,121.53086,25.119016
864,群益金鼎-忠孝,券商,121.547624,25.041758
865,群益金鼎-台北,券商,121.513555,25.050861
866,群益金鼎-鳳山,券商,120.334515,22.603214
867,群益金鼎-內湖,券商,121.592175,25.082187
868,群益金鼎-大安,券商,121.550421,25.041705
869,群益金鼎-大甲,券商,120.617563,24.347723
870,群益金鼎-竹南,券商,120.8783,24.686643
871,群益金鼎-丹鳳,券商,121.418389,25.026423
872,群益金鼎-瑞豐,券商,120.329824,22.622413
873,群益金鼎-延平,券商,121.511517,25.056516
874,群益金鼎-宜蘭,券商,121.751451,24.754852
875,群益金鼎-國際證券,券商,121.568693,25.035962
876,群益期貨,券商,121.549184,25.028912
877,彰銀,券商,121.511679,25.042175
878,彰銀-七賢,券商,120.306492,22.634551
879,彰銀-台中,券商,120.662088,24.121981
880,福邦,券商,121.518144,25.045821
881,福勝,券商,121.441497,25.169491
882,臺銀證券,券商,121.513107,25.043913
883,臺銀-臺南,券商,120.196755,22.993304
884,臺銀-民權,券商,121.518512,25.062495
885,臺銀-新竹,券商,120.970253,24.80177
886,臺銀-臺中,券商,120.620493,24.349416
887,臺銀-高雄,券商,120.29537,22.619629
888,臺銀-金山,券商,121.526391,25.02825
889,德信,券商,121.532583,25.042014
890,德信-台北,券商,121.515124,25.044962
891,德信-中正,券商,120.674211,24.147801
892,德信-新營,券商,120.310047,23.30025
893,德信-三重,券商,121.486534,25.058489
894,德信-和平,券商,121.555443,25.033325
895,摩根大通,券商,121.566773,25.032586
896,聯邦商銀,券商,121.53511,25.052216
897,聯邦-高雄,券商,120.313796,22.629099
898,聯邦-嘉義,券商,120.347911,23.556287
899,聯邦-敦化,券商,121.549256,25.041822
900,聯邦-雙和,券商,121.516003,24.99762
901,聯邦-三重,券商,121.495268,25.061402
902,聯邦--大業,券商,121.312105,25.0137
903,聯邦--興中,券商,120.656824,24.116007
904,聯邦--富強,券商,120.230176,22.98081
905,豐農,券商,120.726736,24.254887
906,寶盛,券商,120.688888,24.163771
907,鑫豐,券商,121.51752,25.062705
908,台灣水泥股份有限公司,公司,121.523259,25.060676
909,亞洲水泥股份有限公司,公司,121.549255,25.026009
910,嘉新水泥股份有限公司,公司,121.522662,25.059488
911,環球水泥股份有限公司,公司,121.534574,25.052222
912,幸福水泥股份有限公司,公司,121.533454,25.058983
913,信大水泥股份有限公司,公司,121.5102,25.041657
914,東南水泥股份有限公司,公司,120.299715,22.622312
915,味全食品工業股份有限公司,公司,121.533257,25.053024
916,味王股份有限公司,公司,121.523094,25.058202
917,大成長城企業股份有限公司,公司,120.255107,23.043696
918,大西洋飲料股份有限公司,公司,121.490461,25.068168
919,台灣卜蜂企業股份有限公司,公司,121.533204,25.050449
920,統一企業股份有限公司,公司,120.24463,23.034185
921,愛之味股份有限公司,公司,120.431211,23.521401
922,泰山企業股份有限公司,公司,120.592781,23.848209
923,福壽實業股份有限公司,公司,120.558302,24.231511
924,台榮產業股份有限公司,公司,121.535844,25.051819
925,福懋油脂股份有限公司,公司,120.564183,24.122979
926,佳格食品股份有限公司,公司,121.54142,25.037512
927,聯華實業投資控股股份有限公司,公司,121.516949,25.051348
928,聯華食品工業股份有限公司,公司,121.509675,25.057659
929,大統益股份有限公司,公司,120.320278,23.213844
930,天仁茶業股份有限公司,公司,121.548289,25.041747
931,黑松股份有限公司,公司,121.554592,25.032948
932,興泰實業股份有限公司,公司,120.321765,22.690638
933,宏亞食品股份有限公司,公司,121.550427,24.974806
934,茂生農經股份有限公司,公司,121.520546,25.026572
935,其祥生物科技控股有限公司,公司,121.533164,25.048044
936,安心食品服務股份有限公司,公司,121.532864,25.054655
937,德麥食品股份有限公司,公司,121.45208,25.065971
938,漢來美食股份有限公司,公司,120.296032,22.619333
939,台灣塑膠工業股份有限公司,公司,120.335078,22.705711
940,南亞塑膠工業股份有限公司,公司,121.549415,25.056625
941,台灣聚合化學品股份有限公司,公司,121.56488,25.079561
942,華夏海灣塑膠股份有限公司,公司,121.56488,25.079561
943,三芳化學工業股份有限公司,公司,120.293082,22.644599
944,亞洲聚合股份有限公司,公司,120.406249,22.501664
945,台達化學工業股份有限公司,公司,121.56488,25.079561
946,台灣苯乙烯工業股份有限公司,公司,121.517613,25.033228
947,國喬石油化學股份有限公司,公司,121.549637,25.051919
948,聯成化學科技股份有限公司,公司,121.611418,25.055045
949,中國石油化學工業開發(股)公司,公司,120.340334,22.725902
950,上曜建設開發股份有限公司,公司,120.179999,22.990219
951,東陽實業廠股份有限公司,公司,120.214766,23.038405
952,大洋塑膠工業股份有限公司,公司,121.498024,25.031264
953,永裕塑膠工業股份有限公司,公司,120.25718,22.957751
954,地球綜合工業股份有限公司,公司,121.538116,25.05217
955,恒大股份有限公司,公司,121.525394,25.057734
956,恩得利工業股份有限公司,公司,121.466807,25.0454
957,台翰精密科技股份有限公司,公司,121.458913,25.06727
958,亞洲塑膠再生資源控股有限公司,公司,120.294802,22.660672
959,昭輝實業股份有限公司,公司,120.398687,24.06911
960,遠東新世紀股份有限公司,公司,121.549255,25.026009
961,新光合成纖維股份有限公司,公司,121.533728,25.052227
962,南洋染整股份有限公司,公司,121.285394,25.083233
963,宏洲纖維工業股份有限公司,公司,121.56684,25.080183
964,東和紡織股份有限公司,公司,121.555758,25.037406
965,廣豐實業股份有限公司,公司,121.29907,24.965038
966,嘉裕股份有限公司,公司,121.544743,25.038235
967,東華合纖股份有限公司,公司,121.532504,25.041194
968,新光紡織股份有限公司,公司,121.533728,25.052227
969,利華羊毛工業股份有限公司,公司,121.557075,25.041138
970,大魯閣實業股份有限公司,公司,120.687674,24.135473
971,福懋興業股份有限公司,公司,120.588147,23.727346
972,中福國際(股)公司,公司,121.497452,25.000782
973,勤益投資控股股份有限公司,公司,121.557328,25.041134
974,裕豐國際開發股份有限公司,公司,121.152557,24.964583
975,中和羊毛工業股份有限公司,公司,121.563267,25.041758
976,臺南紡織股份有限公司,公司,120.233033,22.988693
977,大東紡織股份有限公司,公司,121.548091,25.051562
978,名軒開發股份有限公司,公司,121.433944,25.076684
979,立益紡織股份有限公司,公司,121.508636,25.05384
980,力麗企業股份有限公司,公司,121.53287,25.055377
981,大宇紡織股份有限公司,公司,121.508478,25.052638
982,宏和精密紡織股份有限公司,公司,120.248579,23.022347
983,力鵬企業股份有限公司,公司,121.53287,25.055377
984,佳和實業股份有限公司,公司,120.293625,23.101009
985,年興紡織股份有限公司,公司,120.798831,24.624576
986,宏益纖維工業股份有限公司,公司,121.510211,25.053117
987,大將開發股份有限公司,公司,121.549145,25.030622
988,台灣富綢纖維股份有限公司,公司,121.508636,25.05384
989,集盛實業股份有限公司,公司,121.508636,25.05384
990,怡華實業股份有限公司,公司,121.572899,25.080646
991,宜進實業股份有限公司,公司,121.56684,25.080183
992,聯發紡織纖維股份有限公司,公司,121.50745,25.05283
993,宏遠興業股份有限公司,公司,120.342285,23.11332
994,強盛染整股份有限公司,公司,121.177702,25.072939
995,得力實業股份有限公司,公司,120.295693,23.104825
996,偉全實業股份有限公司,公司,121.508478,25.052638
997,聚隆纖維股份有限公司,公司,120.427943,23.998505
998,南緯實業股份有限公司,公司,120.262705,22.962485
999,昶和纖維興業股份有限公司,公司,121.283068,25.053283
1000,首利實業股份有限公司,公司,121.448391,25.066521
1001,三洋紡織纖維股份有限公司,公司,121.508478,25.052638
1002,台南企業股份有限公司,公司,120.28018,22.968665
1003,本盟光電股份有限公司,公司,121.234072,24.981795
1004,儒鴻企業股份有限公司,公司,121.450596,25.066745
1005,聚陽實業股份有限公司,公司,121.563129,25.041005
1006,士林電機廠股份有限公司,公司,121.524985,25.104987
1007,東元電機股份有限公司,公司,121.613866,25.056028
1008,正道工業股份有限公司,公司,120.200095,22.922219
1009,永大機電工業股份有限公司,公司,121.54428,25.052848
1010,瑞利企業股份有限公司,公司,120.323481,22.689923
1011,中興電工機械股份有限公司,公司,121.484722,25.000986
1012,亞力電機股份有限公司,公司,121.613866,25.056028
1013,力山工業股份有限公司,公司,120.713601,24.093802
1014,川飛能源股份有限公司,公司,121.557885,25.03246
1015,利奇機械工業股份有限公司,公司,120.614987,24.057203
1016,華城電機股份有限公司,公司,121.239954,24.978746
1017,大億交通工業製造股份有限公司,公司,120.180229,22.972162
1018,堤維西交通工業股份有限公司,公司,120.173625,22.969297
1019,耿鼎企業股份有限公司,公司,121.281026,25.069229
1020,江申工業股份有限公司,公司,121.141372,24.896664
1021,日馳企業股份有限公司,公司,121.260377,25.107191
1022,恩德科技股份有限公司,公司,121.524985,25.104987
1023,樂士股份有限公司,公司,120.205387,22.998813
1024,亞崴機電股份有限公司,公司,121.065089,24.821961
1025,勤美股份有限公司,公司,121.547936,25.038326
1026,車王電子股份有限公司,公司,120.643122,24.226807
1027,和大工業股份有限公司,公司,120.721638,24.091856
1028,正峰新能源股份有限公司,公司,121.186316,24.98283
1029,巨庭機械股份有限公司,公司,120.713471,24.121815
1030,喬福機械工業股份有限公司,公司,120.630508,24.353898
1031,錩泰工業股份有限公司,公司,120.722451,24.294851
1032,伸興工業股份有限公司,公司,120.708943,24.115936
1033,中國砂輪企業股份有限公司,公司,121.351423,24.956937
1034,精華光學股份有限公司,公司,121.634733,25.056812
1035,倉佑實業股份有限公司,公司,120.45018,23.524653
1036,力肯實業股份有限公司,公司,121.410488,25.160208
1037,新麥企業股份有限公司,公司,121.450449,25.065484
1038,信錦企業股份有限公司,公司,121.49087,24.999998
1039,程泰機械股份有限公司,公司,120.607986,24.16522
1040,精剛精密科技股份有限公司,公司,120.354594,23.283396
1041,和勤精機股份有限公司,公司,120.45777,23.990259
1042,吉茂精密股份有限公司,公司,120.34741,23.914673
1043,永冠能源科技集團有限公司,公司,121.57608,25.058567
1044,亞德客國際集團,公司,121.547734,25.058012
1045,英瑞國際股份有限公司,公司,120.169742,22.997515
1046,祺驊股份有限公司,公司,121.04474,24.910758
1047,川寶科技股份有限公司,公司,121.275285,25.068648
1048,直得科技股份有限公司,公司,120.279697,23.10713
1049,岱宇國際股份有限公司,公司,121.533227,25.051392
1050,宏佳騰動力科技股份有限公司,公司,120.346344,23.090996
1051,中華電線電纜股份有限公司,公司,121.522544,25.06829
1052,聲寶股份有限公司,公司,121.361817,25.042643
1053,華新麗華股份有限公司,公司,121.566081,25.038775
1054,大亞電線電纜股份有限公司,公司,120.31604,22.961537
1055,中國電器股份有限公司,公司,121.548556,25.056652
1056,宏泰電工股份有限公司,公司,121.116031,25.054549
1057,台灣三洋電機股份有限公司,公司,121.53294,25.059324
1058,大山電線電纜股份有限公司,公司,120.513212,23.693328
1059,億泰電線電纜股份有限公司,公司,121.531687,25.038533
1060,榮星電線工業股份有限公司,公司,120.254653,22.978292
1061,合機電線電纜股份有限公司,公司,121.526726,25.0442
1062,艾美特(開曼)國際有限公司,公司,120.182523,22.979074
1063,南僑投資控股股份有限公司,公司,121.510767,25.071549
1064,葡萄王生技股份有限公司,公司,121.225202,24.934003
1065,東鹼股份有限公司,公司,121.549183,25.028808
1066,和益化學工業股份有限公司,公司,121.535844,25.051819
1067,東聯化學股份有限公司,公司,121.544282,25.052986
1068,臺灣永光化學工業股份有限公司,公司,121.549317,25.030189
1069,興農股份有限公司,公司,120.580433,24.111829
1070,國泰化工廠股份有限公司,公司,121.557328,25.041134
1071,和桐化學股份有限公司,公司,120.332714,22.709453
1072,長興材料工業股份有限公司,公司,120.323975,22.650196
1073,中國人造纖維股份有限公司,公司,120.338977,22.726025
1074,生達化學製藥股份有限公司,公司,120.344999,23.32161
1075,三晃股份有限公司,公司,120.710217,24.101903
1076,台灣肥料股份有限公司,公司,121.531037,25.05176
1077,中鋼碳素化學股份有限公司,公司,120.301885,22.604786
1078,台硝股份有限公司,公司,121.297852,25.016318
1079,元禎企業股份有限公司,公司,121.550915,25.057734
1080,永記造漆工業股份有限公司,公司,120.372559,22.529513
1081,臺灣中華化學工業股份有限公司,公司,121.11658,25.055909
1082,花仙子企業股份有限公司,公司,121.518493,25.072372
1083,美吾華股份有限公司,公司,121.544306,25.053898
1084,毛寶股份有限公司,公司,121.016217,24.866468
1085,杏輝藥品工業股份有限公司,公司,121.752163,24.634263
1086,喬山健康科技股份有限公司,公司,120.613356,24.233936
1087,臺鹽實業股份有限公司,公司,120.204102,22.980369
1088,台灣蠟品股份有限公司,公司,120.52421,23.423082
1089,南光化學製藥股份有限公司,公司,120.287816,23.033947
1090,寶齡富錦生技股份有限公司,公司,121.611987,25.058478
1091,中化合成生技股份有限公司,公司,121.409077,24.979766
1092,勝一化工股份有限公司,公司,120.253938,22.811754
1093,生泰合成工業股份有限公司,公司,120.336398,23.320639
1094,合世生醫科技股份有限公司,公司,121.487813,24.99668
1095,和康生物科技股份有限公司,公司,121.375442,25.053303
1096,訊聯生物科技股份有限公司,公司,121.574449,25.058999
1097,光洋應用材料科技股份有限公司,公司,120.158343,23.030822
1098,杏昌生技股份有限公司,公司,121.468435,25.045563
1099,美時化學製藥股份有限公司,公司,121.569844,25.02429
1100,金穎生物科技股份有限公司,公司,120.281812,23.30264
1101,台灣玻璃工業股份有限公司,公司,121.545162,25.052021
1102,寶徠建設股份有限公司,公司,121.581113,25.061568
1103,冠軍建材股份有限公司,公司,120.888833,24.706848
1104,潤隆建設股份有限公司,公司,121.560319,25.08012
1105,中國製釉股份有限公司,公司,121.049153,24.773249
1106,和成欣業股份有限公司,公司,121.584575,25.063074
1107,寶利徠光學科技股份有限公司,公司,121.18131,25.056602
1108,富喬工業股份有限公司,公司,120.59634,23.709824
1109,凱撒衛浴股份有限公司,公司,121.471427,25.053249
1110,台灣紙業股份有限公司,公司,120.293341,23.29792
1111,士林紙業股份有限公司,公司,121.524004,25.091757
1112,中華紙漿股份有限公司,公司,121.514933,25.03122
1113,寶隆國際股份有限公司,公司,120.569092,23.750585
1114,永豐餘投資控股股份有限公司,公司,121.514933,25.03122
1115,榮成紙業股份有限公司,公司,120.363778,23.869827
1116,東和鋼鐵企業股份有限公司,公司,121.522434,25.049788
1117,燁興企業股份有限公司,公司,120.275102,22.769048
1118,高興昌鋼鐵股份有限公司,公司,120.292227,22.664137
1119,春源鋼鐵工業股份有限公司,公司,121.544127,25.065576
1120,春雨工廠股份有限公司,公司,120.289953,22.808015
1121,中國鋼鐵結構股份有限公司,公司,120.360659,22.779326
1122,中鴻鋼鐵股份有限公司,公司,120.275104,22.763549
1123,豐興鋼鐵股份有限公司,公司,120.713988,24.310587
1124,官田鋼鐵股份有限公司,公司,120.185539,22.966999
1125,美亞鋼管廠股份有限公司,公司,121.541691,25.062626
1126,聚亨企業股份有限公司,公司,120.294318,22.805015
1127,燁輝企業股份有限公司,公司,120.275531,22.763784
1128,志聯工業股份有限公司,公司,121.09461,24.963104
1129,千興不銹鋼(股)公司,公司,120.233464,23.188694
1130,大成不銹鋼工業股份有限公司,公司,120.266189,22.959882
1131,威致鋼鐵工業股份有限公司,公司,120.296113,23.187754
1132,盛餘股份有限公司,公司,120.367414,22.537423
1133,新光鋼鐵股份有限公司,公司,121.485788,25.05478
1134,新鋼工業股份有限公司,公司,121.432064,25.005669
1135,佳大世界股份有限公司,公司,120.247631,23.0439
1136,允強實業股份有限公司,公司,120.508377,23.863216
1137,唐榮鐵工廠股份有限公司,公司,120.369348,22.545294
1138,海光企業股份有限公司,公司,120.365709,22.550473
1139,上銀科技股份有限公司,公司,120.602078,24.145941
1140,川湖科技股份有限公司,公司,120.243142,22.837145
1141,風青實業股份有限公司,公司,120.301917,22.611675
1142,橋椿金屬股份有限公司,公司,120.640227,24.158809
1143,世鎧精密股份有限公司,公司,120.273264,22.814488
1144,晉椿工業股份有限公司,公司,120.397589,24.078339
1145,世豐螺絲股份有限公司,公司,120.267753,22.738104
1146,運錩鋼鐵股份有限公司,公司,120.292762,22.628062
1147,精湛光學科技股份有限公司,公司,120.236034,22.896832
1148,南港輪胎股份有限公司,公司,121.54142,25.037512
1149,泰豐輪胎股份有限公司,公司,121.234397,24.958987
1150,台橡股份有限公司,公司,120.340076,22.725124
1151,國際中橡投資控股股份有限公司,公司,121.523259,25.060676
1152,正新橡膠工業股份有限公司,公司,120.574838,23.982876
1153,建大工業股份有限公司,公司,120.563085,23.944562
1154,厚生股份有限公司,公司,121.512182,25.0451
1155,南帝化學工業股份有限公司,公司,120.405322,22.512554
1156,華豐橡膠工業股份有限公司,公司,120.563248,23.991527
1157,裕隆汽車製造股份有限公司,公司,120.74596,24.379707
1158,中華汽車工業股份有限公司,公司,121.548437,25.033024
1159,三陽工業股份有限公司,公司,121.004296,24.865696
1160,和泰汽車股份有限公司,公司,121.53325,25.052658
1161,台灣國際造船股份有限公司,公司,120.347213,22.554006
1162,大甲永和機械工業股份有限公司,公司,120.655821,24.402135
1163,裕隆日產汽車股份有限公司,公司,120.741547,24.367069
1164,劍麟股份有限公司,公司,121.648647,25.060465
1165,泰茂實業股份有限公司,公司,120.324757,23.204461
1166,為升電裝工業股份有限公司,公司,120.458966,24.047291
1167,宇隆科技股份有限公司,公司,120.51324,24.246388
1168,謚源實業股份有限公司,公司,121.360235,25.044454
1169,百達精密工業股份有限公司,公司,121.53511,25.052216
1170,開曼英利工業股份有限公司,公司,120.543467,24.074455
1171,宏旭控股股份有限公司,公司,121.372589,25.070325
1172,光寶科技股份有限公司,公司,121.571259,25.077801
1173,麗正國際科技股份有限公司,公司,121.427028,24.965845
1174,全友電腦股份有限公司,公司,121.005487,24.776503
1175,台達電子工業股份有限公司,公司,121.578098,25.07419
1176,金寶電子工業股份有限公司,公司,121.56047,25.051697
1177,華通電腦股份有限公司,公司,121.241954,25.025779
1178,台揚科技股份有限公司,公司,120.997373,24.779769
1179,鴻海精密工業股份有限公司,公司,121.420985,24.966138
1180,東訊股份有限公司,公司,121.002388,24.779388
1181,中環股份有限公司,公司,121.520494,25.063051
1182,仁寶電腦工業股份有限公司,公司,121.567977,25.079754
1183,國巨股份有限公司,公司,121.551327,24.978997
1184,廣宇科技股份有限公司,公司,121.51438,24.976882
1185,華泰電子股份有限公司,公司,120.290227,22.600521
1186,精英電腦股份有限公司,公司,121.566896,25.078195
1187,友訊科技股份有限公司,公司,121.583046,25.066056
1188,台灣茂矽電子股份有限公司,公司,120.988671,24.777253
1189,智邦科技股份有限公司,公司,120.988175,24.778219
1190,聯強國際股份有限公司,公司,121.54382,25.058033
1191,海悅國際開發股份有限公司,公司,121.550044,25.060948
1192,錸德科技股份有限公司,公司,121.023645,24.873581
1193,佳世達科技股份有限公司,公司,121.325738,24.988484
1194,宏碁股份有限公司,公司,121.544773,25.062448
1195,鴻準精密工業股份有限公司,公司,121.412736,24.961212
1196,敬鵬工業股份有限公司,公司,121.285926,25.060048
1197,華碩電腦股份有限公司,公司,121.471438,25.124942
1198,廷鑫興業股份有限公司,公司,120.226544,22.925487
1199,所羅門股份有限公司,公司,121.577781,25.065332
1200,致茂電子股份有限公司,公司,121.373104,25.040212
1201,藍天電腦股份有限公司,公司,121.470365,25.053107
1202,矽統科技股份有限公司,公司,121.004057,24.800346
1203,倫飛電腦實業股份有限公司,公司,121.567124,25.079706
1204,昆盈企業股份有限公司,公司,121.47355,25.046824
1205,燿華電子股份有限公司,公司,121.413475,24.959576
1206,金像電子(股)公司,公司,121.236824,24.98495
1207,菱生精密工業股份有限公司,公司,120.705029,24.216767
1208,大同股份有限公司,公司,121.52173,25.064468
1209,震旦行股份有限公司,公司,121.55988,25.03282
1210,佳能企業股份有限公司,公司,121.442708,25.054651
1211,凱美電機股份有限公司,公司,121.646398,25.061142
1212,技嘉科技股份有限公司,公司,121.543271,24.978788
1213,微星科技股份有限公司,公司,121.487483,25.007701
1214,虹光精密工業股份有限公司,公司,120.991626,24.775165
1215,廣達電腦股份有限公司,公司,121.374448,25.048365
1216,群光電子股份有限公司,公司,121.47225,25.056943
1217,精元電腦股份有限公司,公司,120.670437,24.226521
1218,威盛電子股份有限公司,公司,121.533446,24.98592
1219,云辰電子開發股份有限公司,公司,121.445948,24.988951
1220,正崴精密工業股份有限公司,公司,121.419012,24.962302
1221,億光電子工業股份有限公司,公司,121.424138,24.983926
1222,研華股份有限公司,公司,121.582564,25.069343
1223,友通資訊股份有限公司,公司,121.629856,25.060001
1224,映泰股份有限公司,公司,121.535674,24.982977
1225,凌陽科技股份有限公司,公司,120.996177,24.777531
1226,毅嘉科技股份有限公司,公司,121.374016,25.043755
1227,漢唐集成股份有限公司,公司,121.551812,24.97821
1228,浩鑫股份有限公司,公司,121.580567,25.070665
1229,國碩科技工業股份有限公司,公司,121.026477,24.872029
1230,南亞科技股份有限公司,公司,121.413371,25.045273
1231,友達光電股份有限公司,公司,121.019692,24.773095
1232,中華電信股份有限公司,公司,121.522052,25.036829
1233,精技電腦股份有限公司,公司,121.582099,25.064368
1234,錩新科技股份有限公司,公司,121.518506,25.045734
1235,圓剛科技股份有限公司,公司,121.488243,25.001113
1236,新巨企業股份有限公司,公司,121.539336,24.983111
1237,建準電機工業股份有限公司,公司,120.31435,22.582267
1238,固緯電子實業股份有限公司,公司,121.423391,24.964527
1239,隴華電子股份有限公司,公司,121.551709,25.048081
1240,承啟科技股份有限公司,公司,121.539731,24.983062
1241,興勤電子工業股份有限公司,公司,120.314196,22.654475
1242,燦坤實業股份有限公司,公司,121.57295,25.062783
1243,聯昌電子企業股份有限公司,公司,121.588684,25.061827
1244,互盛股份有限公司,公司,121.55988,25.03282
1245,統懋半導體股份有限公司,公司,120.30067,23.077093
1246,偉詮電子股份有限公司,公司,121.007023,24.772908
1247,翔耀實業股份有限公司,公司,121.367982,25.014844
1248,美律實業股份有限公司,公司,120.604913,24.159369
1249,太空梭高傳真資訊科技(股)公司,公司,121.125187,24.735811
1250,超豐電子股份有限公司,公司,120.882406,24.696508
1251,新美齊股份有限公司,公司,121.57473,25.07288
1252,億麗科技股份有限公司,公司,121.051685,24.90471
1253,兆勁科技股份有限公司,公司,121.002388,24.779388
1254,京元電子股份有限公司,公司,121.007482,24.797677
1255,神腦國際企業股份有限公司,公司,121.533143,24.98573
1256,創見資訊股份有限公司,公司,121.580837,25.066542
1257,凌群電腦股份有限公司,公司,121.503763,25.044345
1258,全新光電科技股份有限公司,公司,121.203477,24.905804
1259,奇力新電子股份有限公司,公司,121.041822,24.914679
1260,飛宏科技股份有限公司,公司,121.372478,25.039722
1261,敦吉科技股份有限公司,公司,121.562929,25.082857
1262,建通精密工業股份有限公司,公司,120.271045,22.853324
1263,光群雷射科技股份有限公司,公司,121.01555,24.773392
1264,台灣良得電子股份有限公司,公司,121.598146,25.004919
1265,盟立自動化股份有限公司,公司,121.000904,24.77814
1266,麗臺科技股份有限公司,公司,121.48782,24.9978
1267,冠西電子企業股份有限公司,公司,121.486187,24.998328
1268,志聖工業股份有限公司,公司,121.401537,25.07874
1269,華經資訊企業股份有限公司,公司,121.580247,25.061827
1270,資通電腦股份有限公司,公司,121.523168,25.06012
1271,立隆電子工業股份有限公司,公司,120.68307,24.097885
1272,可成科技股份有限公司,公司,120.243403,23.052271
1273,鉅祥企業股份有限公司,公司,121.140641,24.962281
1274,美隆工業股份有限公司,公司,121.30161,25.027974
1275,大毅科技股份有限公司,公司,121.288833,25.074007
1276,敦陽科技股份有限公司,公司,120.967529,24.813445
1277,強茂股份有限公司,公司,120.28433,22.809159
1278,連宇股份有限公司,公司,121.430632,24.970786
1279,希華晶體科技股份有限公司,公司,120.70516,24.223058
1280,兆赫電子股份有限公司,公司,121.479299,25.009012
1281,一詮精密工業股份有限公司,公司,121.454513,25.063517
1282,漢平電子工業股份有限公司,公司,120.255461,22.978697
1283,瑞軒科技股份有限公司,公司,121.486861,24.996608
1284,吉祥全球實業股份有限公司,公司,121.54488,24.970414
1285,華新科技股份有限公司,公司,121.566081,25.038775
1286,揚博科技股份有限公司,公司,121.574802,25.03586
1287,普安科技股份有限公司,公司,121.476902,25.005955
1288,怡利電子工業股份有限公司,公司,120.512541,24.164891
1289,宏達國際電子股份有限公司,公司,121.327263,24.975857
1290,東貝光電科技股份有限公司,公司,121.47192,25.050778
1291,國泰建設股份有限公司,公司,121.548293,25.021871
1292,國產建材實業股份有限公司,公司,121.574434,25.058437
1293,國揚實業股份有限公司,公司,121.563066,25.041584
1294,太平洋建設股份有限公司,公司,121.554152,25.041671
1295,全坤建設開發股份有限公司,公司,121.583185,25.064549
1296,太子建設開發股份有限公司,公司,120.232699,22.990091
1297,龍邦國際興業股份有限公司,公司,121.515823,25.046303
1298,新亞建設開發股份有限公司,公司,121.579153,25.050151
1299,冠德建設股份有限公司,公司,121.552121,25.024691
1300,京城建設股份有限公司,公司,120.303335,22.65913
1301,宏璟建設股份有限公司,公司,121.559951,25.034057
1302,皇普建設股份有限公司,公司,121.275058,24.992882
1303,大華建設股份有限公司,公司,121.606273,25.073701
1304,宏盛建設股份有限公司,公司,121.547604,25.057396
1305,達欣工程股份有限公司,公司,121.548391,25.028383
1306,宏普建設股份有限公司,公司,121.549145,25.030622
1307,聯上開發股份有限公司,公司,121.566694,25.040648
1308,基泰建設股份有限公司,公司,121.512184,25.04238
1309,櫻花建設股份有限公司,公司,120.666844,24.152743
1310,愛山林建設開發股份有限公司,公司,121.550501,25.041281
1311,興富發建設股份有限公司,公司,121.560319,25.08012
1312,皇昌營造股份有限公司,公司,121.516662,25.022874
1313,皇翔建設股份有限公司,公司,121.511225,25.045884
1314,根基營造股份有限公司,公司,121.552121,25.024691
1315,日勝生活科技股份有限公司,公司,121.51835,25.048893
1316,華固建設股份有限公司,公司,121.558272,25.032831
1317,綠意開發股份有限公司,公司,121.561038,25.046686
1318,潤弘精密工程事業股份有限公司,公司,121.542559,25.04688
1319,益航股份有限公司,公司,121.54371,25.025846
1320,長榮海運股份有限公司,公司,121.534178,25.057728
1321,新興航運股份有限公司,公司,121.543397,25.034935
1322,裕民航運股份有限公司,公司,121.549255,25.026009
1323,長榮國際儲運股份有限公司,公司,121.30028,25.032315
1324,嘉里大榮物流股份有限公司,公司,121.532583,25.042014
1325,陽明海運股份有限公司,公司,121.711049,25.094508
1326,中華航空股份有限公司,公司,121.221868,25.068331
1327,志信國際股份有限公司,公司,121.537232,25.055046
1328,中國航運股份有限公司,公司,121.522366,25.042597
1329,中國貨櫃運輸股份有限公司,公司,121.67525,25.075997
1330,東森國際股份有限公司,公司,121.543397,25.034935
1331,萬海航運股份有限公司,公司,121.532826,25.053107
1332,山隆通運股份有限公司,公司,121.476703,25.011683
1333,台灣航業股份有限公司,公司,121.528657,25.041101
1334,長榮航空股份有限公司,公司,121.297156,25.040175
1335,亞洲航空股份有限公司,公司,120.216953,22.949261
1336,台灣高速鐵路股份有限公司,公司,121.616198,25.057141
1337,漢翔航空工業股份有限公司,公司,120.64658,24.184808
1338,台驊國際投資控股股份有限公司,公司,121.564019,25.041454
1339,台灣大車隊股份有限公司,公司,121.539353,25.04824
1340,正德海運股份有限公司,公司,120.293367,22.616478
1341,台灣宅配通股份有限公司,公司,121.49077,24.989611
1342,捷迅股份有限公司,公司,121.582392,25.069914
1343,華園飯店股份有限公司,公司,120.290974,22.6292
1344,國賓大飯店股份有限公司,公司,121.52303,25.056833
1345,六福開發股份有限公司,公司,121.187391,24.802854
1346,第一華僑大飯店股份有限公司,公司,121.53025,25.052256
1347,晶華國際酒店股份有限公司,公司,121.523743,25.054199
1348,遠雄悅來大飯店股份有限公司,公司,121.596987,23.908065
1349,晶悅國際飯店股份有限公司,公司,121.31607,25.016639
1350,燦星國際旅行社股份有限公司,公司,121.573103,25.063129
1351,夏都國際開發股份有限公司,公司,120.745176,22.010441
1352,富驛酒店集團有限公司,公司,121.540662,25.052128
1353,王品餐飲股份有限公司,公司,120.669096,24.152104
1354,瓦城泰統股份有限公司,公司,121.487804,24.997323
1355,雄獅旅行社股份有限公司,公司,121.589319,25.063851
1356,六角國際事業股份有限公司,公司,121.041692,24.801914
1357,易飛網國際旅行社股份有限公司,公司,121.512184,25.04238
1358,高野大飯店股份有限公司,公司,121.019876,22.692402
1359,寒舍餐旅管理顧問股份有限公司,公司,121.522071,25.044912
1360,天蔥國際股份有限公司,公司,121.512184,25.04238
1361,山富國際旅行社股份有限公司,公司,121.531803,25.05225
1362,五福旅行社股份有限公司,公司,120.303163,22.642005
1363,雲品國際酒店股份有限公司,公司,121.458702,25.063818
1364,豆府股份有限公司,公司,121.529732,25.062387
1365,彰化商業銀行股份有限公司,公司,120.68208,24.139564
1366,京城商業銀行股份有限公司,公司,120.197717,22.984489
1367,台中商業銀行股份有限公司,公司,120.679992,24.137515
1368,中華票券金融股份有限公司,公司,121.57126,25.07663
1369,中國人壽保險股份有限公司,公司,121.548501,25.054182
1370,台灣產物保險股份有限公司,公司,121.515124,25.044962
1371,臺灣中小企業銀行股份有限公司,公司,121.510288,25.051169
1372,高雄銀行股份有限公司,公司,120.303334,22.659364
1373,聯邦商業銀行股份有限公司,公司,121.54518,25.058077
1374,台灣土地開發股份有限公司,公司,121.512184,25.04238
1375,遠東國際商業銀行股份有限公司,公司,121.549255,25.026009
1376,安泰商業銀行股份有限公司,公司,121.564604,25.033524
1377,新光產物保險股份有限公司,公司,121.537232,25.053754
1378,中央再保險股份有限公司,公司,121.529677,25.052302
1379,第一產物保險股份有限公司,公司,121.523039,25.044671
1380,統一綜合證券股份有限公司,公司,121.565188,25.050298
1381,三商美邦人壽保險股份有限公司,公司,121.570922,25.02816
1382,華南金融控股股份有限公司,公司,121.568781,25.034519
1383,富邦金融控股股份有限公司,公司,121.538486,25.037312
1384,國泰金融控股股份有限公司,公司,121.55372,25.03741
1385,中華開發金融控股股份有限公司,公司,121.561035,25.051721
1386,玉山金融控股股份有限公司,公司,121.546431,25.058064
1387,元大金融控股股份有限公司,公司,121.548458,25.047339
1388,兆豐金融控股股份有限公司,公司,121.532503,25.042764
1389,台新金融控股股份有限公司,公司,121.549957,25.037482
1390,新光金融控股股份有限公司,公司,121.515302,25.046226
1391,國票金融控股股份有限公司,公司,121.536186,25.052233
1392,永豐金融控股股份有限公司,公司,121.542479,25.046855
1393,中國信託金融控股股份有限公司,公司,121.616179,25.058917
1394,第一金融控股股份有限公司,公司,121.513108,25.045572
1395,王道商業銀行股份有限公司,公司,121.57126,25.07663
1396,欣欣大眾市場股份有限公司,公司,121.52556,25.054131
1397,遠東百貨股份有限公司,公司,121.466997,25.013016
1398,匯僑股份有限公司,公司,121.547898,25.057945
1399,三商投資控股股份有限公司,公司,121.537374,25.061257
1400,特力股份有限公司,公司,121.574203,25.062187
1401,統領百貨股份有限公司,公司,121.551621,25.041678
1402,麗嬰房股份有限公司,公司,121.577108,25.071702
1403,統一超商股份有限公司,公司,121.566599,25.04701
1404,潤泰全球股份有限公司,公司,121.542559,25.04688
1405,滿心企業股份有限公司,公司,121.450027,25.065024
1406,鼎固控股有限公司,公司,121.637877,25.075244
1407,開曼東凌股份有限公司,公司,121.59162,25.054807
1408,誠品生活股份有限公司,公司,121.574181,25.0344
1409,紅馬集團股份有限公司,公司,121.547995,25.051963
1410,淘帝國際控股有限公司,公司,121.576271,25.058492
1411,客思達股份有限公司,公司,120.69954,24.175294
1412,集雅社股份有限公司,公司,120.325743,22.629441
1413,凱羿國際集團股份有限公司,公司,121.514646,25.011068
1414,歐格電子工業股份有限公司,公司,121.562895,25.083389
1415,健和興端子股份有限公司,公司,120.430925,24.132932
1416,豐達科技股份有限公司(原宏達),公司,121.248822,24.902497
1417,大立光電股份有限公司,公司,120.60307,24.147321
1418,華立企業股份有限公司,公司,120.292762,22.628062
1419,今皓實業股份有限公司,公司,121.549775,24.972798
1420,晟銘電子科技股份有限公司,公司,121.583237,25.068787
1421,聯陽半導體股份有限公司,公司,120.996509,24.777142
1422,全漢企業股份有限公司,公司,121.320537,24.9859
1423,嘉晶電子股份有限公司,公司,121.023651,24.768802
1424,奇鋐科技股份有限公司,公司,120.320156,22.576654
1425,同開科技工程股份有限公司,公司,121.492724,25.005806
1426,鴻名企業股份有限公司,公司,121.566738,25.047495
1427,威強電工業電腦股份有限公司,公司,121.634995,25.061342
1428,憶聲電子股份有限公司,公司,121.239517,24.986902
1429,禾伸堂企業股份有限公司,公司,121.574406,25.085435
1430,盛達電業股份有限公司,公司,121.548531,24.973322
1431,增你強股份有限公司,公司,121.582556,25.064848
1432,零壹科技股份有限公司,公司,121.570331,25.080742
1433,德律科技股份有限公司,公司,121.523129,25.106069
1434,佰鴻工業股份有限公司,公司,121.465408,24.998653
1435,偉訓科技股份有限公司,公司,120.216913,23.035443
1436,威健實業股份有限公司,公司,121.569029,25.081436
1437,文曄科技股份有限公司,公司,121.485564,24.998111
1438,欣興電子股份有限公司,公司,121.330316,24.982181
1439,全台晶像股份有限公司,公司,120.291732,22.600439
1440,遠見科技股份有限公司,公司,121.47139,25.02926
1441,揚智科技股份有限公司,公司,121.566295,25.082021
1442,台灣晶技股份有限公司,公司,121.500215,25.126798
1443,科風股份有限公司,公司,121.488543,24.996359
1444,台灣大哥大股份有限公司,公司,121.561111,25.044737
1445,建碁股份有限公司,公司,121.544773,25.062448
1446,訊舟科技股份有限公司,公司,121.582317,25.062422
1447,益登科技股份有限公司,公司,121.563458,25.082062
1448,鈺德科技股份有限公司,公司,121.374745,25.046122
1449,力特光電科技股份有限公司,公司,121.242098,24.909284
1450,夆典科技開發股份有限公司,公司,121.480438,25.008368
1451,立萬利創新股份有限公司,公司,121.487238,24.996445
1452,蔚華科技股份有限公司,公司,120.992622,24.802835
1453,總太地產開發股份有限公司,公司,121.009376,24.82324
1454,立德電子股份有限公司,公司,121.552409,24.984
1455,華晶科技股份有限公司,公司,121.026275,24.770339
1456,銘異科技股份有限公司,公司,121.398028,25.016566
1457,泰偉電子股份有限公司,公司,121.471427,25.053249
1458,李洲科技股份有限公司,公司,121.648092,25.06162
1459,全域股份有限公司,公司,121.566738,25.047495
1460,凱柏實業股份有限公司,公司,121.552048,25.082906
1461,僑威科技股份有限公司,公司,121.274497,25.059359
1462,聯亞光電工業股份有限公司,公司,120.275018,23.118791
1463,中華網龍股份有限公司,公司,121.590304,25.05272
1464,創新新零售股份有限公司,公司,121.512277,25.050031
1465,華義國際數位娛樂股份有限公司,公司,121.56362,25.081016
1466,艾訊股份有限公司,公司,121.652539,25.060521
1467,元炬科研股份有限公司,公司,121.56328,25.083188
1468,日電貿股份有限公司,公司,121.534282,24.985845
1469,鴻碩精密電工股份有限公司,公司,121.579545,25.065173
1470,台灣港建股份有限公司,公司,121.278779,25.057442
1471,及成企業股份有限公司,公司,121.486417,25.003816
1472,好德科技股份有限公司,公司,121.54929,25.04633
1473,寶島極光股份有限公司,公司,121.522684,25.086438
1474,進階生物科技股份有限公司,公司,121.623026,25.068581
1475,笙泉科技股份有限公司,公司,121.019611,24.841393
1476,昇銳電子股份有限公司,公司,121.268285,24.932791
1477,一零四資訊科技股份有限公司,公司,121.549481,24.979828
1478,弘塑科技股份有限公司,公司,120.907922,24.748747
1479,晶宏半導體股份有限公司,公司,121.565436,25.080525
1480,新揚科技股份有限公司,公司,120.258876,22.829494
1481,大綜電腦系統股份有限公司,公司,120.321391,22.68937
1482,精確實業股份有限公司,公司,121.087934,24.956028
1483,大量科技股份有限公司,公司,121.291993,24.928425
1484,新洲全球股份有限公司,公司,121.585815,25.064599
1485,基亞生物科技股份有限公司,公司,121.611987,25.058478
1486,公準精密工業股份有限公司,公司,120.325777,22.701205
1487,鑫龍騰開發股份有限公司,公司,120.290819,22.661023
1488,景碩科技股份有限公司,公司,121.099676,24.993181
1489,和進電子股份有限公司,公司,121.510267,25.047034
1490,樺晟電子股份有限公司,公司,121.590886,25.055675
1491,佰研生化科技股份有限公司,公司,121.611987,25.058478
1492,志豐電子股份有限公司,公司,121.45958,25.154577
1493,耀勝電子股份有限公司,公司,121.438972,24.964776
1494,全科科技股份有限公司,公司,121.572397,25.077245
1495,順達科技股份有限公司,公司,121.388255,25.051269
1496,茂訊電腦股份有限公司,公司,121.600371,25.00476
1497,優群科技股份有限公司,公司,120.941675,24.794326
1498,大學光學科技股份有限公司,公司,121.611987,25.058478
1499,倚強股份有限公司,公司,121.563747,25.051213
1500,台灣嘉碩科技股份有限公司,公司,121.201759,24.901042
1501,三顧股份有限公司,公司,121.645591,25.060815
1502,至寶光電股份有限公司,公司,120.29213,23.025943
1503,金麗科技股份有限公司,公司,121.021047,24.775051
1504,晟鈦股份有限公司,公司,121.434197,25.00598
1505,錦明實業股份有限公司,公司,121.300706,25.03319
1506,昱捷股份有限公司,公司,121.64778,25.061592
1507,千如電機工業股份有限公司,公司,121.132442,24.912454
1508,海灣國際開發(股)公司,公司,120.668778,24.150393
1509,鑫創科技股份有限公司,公司,121.01236,24.840747
1510,威剛科技股份有限公司,公司,121.487238,24.996445
1511,欣銓科技股份有限公司,公司,121.017312,24.867421
1512,台星科股份有限公司,公司,121.138037,24.745297
1513,昇陽建設企業股份有限公司,公司,121.554737,25.041611
1514,海德威電子工業股份有限公司,公司,120.617052,24.181856
1515,東碩資訊股份有限公司,公司,121.55162,24.983806
1516,宇環科技股份有限公司,公司,121.202374,24.904374
1517,微端科技股份有限公司,公司,121.622626,25.069557
1518,廣寰科技股份有限公司,公司,121.486832,25.003816
1519,宜特科技股份有限公司,公司,121.008187,24.79345
1520,東浦精密光電股份有限公司,公司,120.665784,24.153279
1521,鈊象電子股份有限公司,公司,121.452577,25.068103
1522,英濟股份有限公司,公司,121.429413,24.969586
1523,勝德國際研發股份有限公司,公司,121.486019,25.004581
1524,杭特電子股份有限公司,公司,121.651338,25.064713
1525,岱稜科技股份有限公司,公司,120.226398,23.17493
1526,昇貿科技股份有限公司,公司,121.202374,24.904374
1527,鼎天國際股份有限公司,公司,121.374448,25.048365
1528,聯德電子股份有限公司,公司,121.375786,25.052423
1529,佳穎精密企業股份有限公司,公司,121.180729,25.037251
1530,閎暉實業股份有限公司,公司,121.453435,25.206313
1531,弘憶國際股份有限公司,公司,121.576176,25.073826
1532,斐成企業股份有限公司,公司,120.299242,22.79389
1533,尼克森微電子股份有限公司,公司,121.633531,25.059912
1534,同泰電子科技股份有限公司,公司,120.649899,24.403237
1535,建舜電子製造股份有限公司,公司,121.645874,25.061727
1536,加百裕工業股份有限公司,公司,121.208375,24.889023
1537,雙鴻科技股份有限公司,公司,121.451566,25.062322
1538,旭品科技股份有限公司,公司,121.472508,25.053091
1539,幸康電子股份有限公司,公司,121.554863,25.032943
1540,泰碩電子股份有限公司,公司,121.574279,25.076495
1541,泰谷光電科技股份有限公司,公司,120.667548,23.92417
1542,麗清科技股份有限公司,公司,121.473643,25.005326
1543,律勝科技股份有限公司,公司,120.276523,23.120148
1544,奇偶科技股份有限公司,公司,121.566295,25.082021
1545,尚立股份有限公司,公司,121.571704,25.079177
1546,先進光電科技股份有限公司,公司,120.628545,24.225826
1547,上詮光纖通信股份有限公司,公司,121.000636,24.78308
1548,台灣典範半導體股份有限公司,公司,120.293886,22.597182
1549,精材科技股份有限公司,公司,121.243634,24.978932
1550,新日興股份有限公司,公司,121.426339,25.007527
1551,彬台科技股份有限公司,公司,121.576358,25.07516
1552,崇越電通股份有限公司,公司,121.550089,25.044405
1553,旭軟電子科技股份有限公司,公司,121.307509,25.044962
1554,漢科系統科技股份有限公司,公司,120.945503,24.794353
1555,融程電訊股份有限公司,公司,121.471427,25.053249
1556,譁裕實業股份有限公司,公司,120.998921,24.802696
1557,台端興業股份有限公司,公司,121.484061,25.006495
1558,哲固資訊科技股份有限公司,公司,121.25181,25.021988
1559,聯一光學工業股份有限公司,公司,120.684365,23.991923
1560,利機企業股份有限公司,公司,120.619764,24.180464
1561,聯鈞光電股份有限公司,公司,121.49211,25.005369
1562,晶睿通訊股份有限公司,公司,121.492303,24.996838
1563,由田新技股份有限公司,公司,121.486861,24.996608
1564,進泰電子科技股份有限公司,公司,121.504733,25.040552
1565,致振企業股份有限公司,公司,121.470755,25.053128
1566,安勤科技股份有限公司,公司,121.48959,24.996659
1567,力致科技股份有限公司,公司,121.008392,24.840512
1568,崧騰企業股份有限公司,公司,121.300709,25.03271
1569,森寶開發股份有限公司,公司,121.299935,25.036035
1570,單井工業股份有限公司,公司,121.429899,24.968125
1571,昇達科技股份有限公司,公司,121.702744,25.08653
1572,長盛科技股份有限公司,公司,121.45958,25.154577
1573,誠研科技股份有限公司,公司,121.539841,24.986083
1574,陽程科技股份有限公司,公司,121.190423,25.047808
1575,環天世通科技股份有限公司,公司,121.487813,24.99668
1576,維熹科技股份有限公司,公司,121.579031,25.064831
1577,矽瑪科技股份有限公司,公司,121.295226,25.022614
1578,皇龍開發股份有限公司,公司,121.574802,25.03586
1579,華擎科技股份有限公司,公司,121.500429,25.12412
1580,亞帝歐光電股份有限公司,公司,121.27515,24.95972
1581,柏騰科技股份有限公司,公司,121.375727,25.055092
1582,鴻翊國際股份有限公司,公司,121.487813,24.99668
1583,御頂國際股份有限公司,公司,121.490684,25.003167
1584,迎輝科技股份有限公司,公司,120.153921,23.038077
1585,聚積科技股份有限公司,公司,121.008143,24.793326
1586,安馳科技股份有限公司,公司,121.645591,25.060815
1587,力旺電子股份有限公司,公司,121.018596,24.841148
1588,晶相光電股份有限公司,公司,121.015613,24.771801
1589,台塑勝高科技股份有限公司,公司,121.549415,25.056625
1590,嘉澤端子工業股份有限公司,公司,121.698459,25.143236
1591,晶彩科技股份有限公司,公司,121.016107,24.848735
1592,誠創科技股份有限公司,公司,121.580606,25.069814
1593,堡達實業股份有限公司,公司,121.523176,25.061454
1594,曜越科技股份有限公司,公司,121.569515,25.077545
1595,西柏科技股份有限公司,公司,121.489022,25.000101
1596,宇峻奧汀科技股份有限公司,公司,121.486187,24.998328
1597,兆利科技工業股份有限公司,公司,121.455063,25.063514
1598,聯穎科技股份有限公司,公司,121.486842,24.998232
1599,世禾科技股份有限公司,公司,121.008685,24.868697
1600,同致電子企業股份有限公司,公司,121.273312,25.056629
1601,重鵬生技股份有限公司,公司,121.487238,24.996445
1602,禾瑞亞科技股份有限公司,公司,121.574279,25.076495
1603,嘉威生活股份有限公司,公司,121.554592,25.032948
1604,神準科技股份有限公司,公司,121.370977,25.041969
1605,其陽科技股份有限公司,公司,121.650797,25.064098
1606,逸昌科技股份有限公司,公司,121.008773,24.840899
1607,大塚資訊科技股份有限公司,公司,121.463438,25.012523
1608,泓格科技股份有限公司,公司,121.015634,24.861998
1609,友威科技股份有限公司,公司,121.279034,25.054566
1610,博磊科技股份有限公司,公司,120.999517,24.876308
1611,辛耘企業股份有限公司,公司,121.576358,25.07516
1612,閎康科技股份有限公司,公司,121.012832,24.841314
1613,通嘉科技股份有限公司,公司,121.020268,24.840487
1614,艾笛森光電股份有限公司,公司,121.485187,25.001543
1615,力銘科技股份有限公司,公司,120.316348,22.677779
1616,磐儀科技股份有限公司,公司,121.485896,24.996516
1617,智易科技股份有限公司,公司,121.004682,24.791305
1618,宏致電子股份有限公司,公司,121.239285,24.969555
1619,谷崧精密工業股份有限公司,公司,121.201176,24.974316
1620,東林科技股份有限公司,公司,120.594717,24.153866
1621,鼎翰科技股份有限公司,公司,121.537153,24.982799
1622,安可光電股份有限公司,公司,121.037772,24.875907
1623,碩天科技股份有限公司,公司,121.587701,25.062255
1624,光頡科技股份有限公司,公司,121.018983,24.868151
1625,西勝國際股份有限公司,公司,121.427593,25.030232
1626,盈正豫順電子股份有限公司,公司,121.551812,24.97821
1627,地心引力股份有限公司,公司,121.575789,25.038304
1628,新鉅科技股份有限公司,公司,120.637276,24.34141
1629,研勤科技股份有限公司,公司,121.574365,25.075977
1630,駿熠電子科技股份有限公司,公司,121.579031,25.064831
1631,達邁科技股份有限公司,公司,121.077287,24.822728
1632,艾恩特精密工業股份有限公司,公司,121.564898,25.078799
1633,精聯電子股份有限公司,公司,121.552331,24.983946
1634,健策精密工業股份有限公司,公司,121.376704,25.052015
1635,世芯電子股份有限公司,公司,121.56093,25.085715
1636,鑫科材料科技股份有限公司,公司,120.261005,22.836316
1637,貿聯控股(BizLink Holding Inc.),公司,121.487813,24.99668
1638,圓展科技股份有限公司,公司,121.433303,24.970355
1639,康聯訊科技股份有限公司,公司,121.645874,25.061727
1640,"TPK Holding Co., Ltd.",公司,121.579813,25.067364
1641,德微科技股份有限公司,公司,121.602315,25.002469
1642,新至陞科技股份有限公司,公司,121.463607,25.043479
1643,家登精密工業股份有限公司,公司,121.425957,24.963418
1644,亞太電信股份有限公司,公司,121.564826,25.080826
1645,榮昌科技股份有限公司,公司,121.551327,24.978997
1646,元創精密車業股份有限公司,公司,120.63582,24.162372
1647,達能科技股份有限公司,公司,121.071517,25.038224
1648,茂為歐買尬數位科技股份有限公司,公司,121.613866,25.056028
1649,湧德電子股份有限公司,公司,121.276827,25.066262
1650,碩禾電子材料股份有限公司,公司,121.026477,24.872029
1651,營邦企業股份有限公司,公司,121.252354,25.021809
1652,海華科技股份有限公司,公司,121.548976,24.979911
1653,大眾全球投資控股股份有限公司,公司,121.57473,25.07288
1654,大聯大投資控股股份有限公司,公司,121.561944,25.082621
1655,欣陸投資控股股份有限公司,公司,121.54931,25.029236
1656,合勤投資控股股份有限公司,公司,120.996966,24.803014
1657,永信國際投資控股股份有限公司,公司,121.548308,25.062163
1658,神達投資控股股份有限公司,公司,121.375389,25.04688
1659,漢磊先進投資控股股份有限公司,公司,121.008143,24.793326
1660,鑫聯大投資控股股份有限公司,公司,121.561944,25.082621
1661,連展投資控股股份有限公司,公司,121.549743,24.974679
1662,永崴投資控股股份有限公司,公司,121.421898,24.961098
1663,新晶投資控股股份有限公司,公司,121.036355,24.810397
1664,永日化學工業股份有限公司,公司,120.654653,24.403361
1665,佳醫健康事業股份有限公司,公司,121.484061,25.006495
1666,台灣東洋藥品工業股份有限公司,公司,121.611987,25.058478
1667,邦特生物科技股份有限公司,公司,121.523775,25.049447
1668,懷特生技新藥股份有限公司,公司,121.544306,25.053898
1669,加捷生醫股份有限公司,公司,120.342448,22.636165
1670,濟生醫藥生技股份有限公司,公司,121.018489,24.869754
1671,聯上實業股份有限公司,公司,120.30649,22.663577
1672,健喬信元醫藥生技股份有限公司,公司,121.573212,25.080527
1673,明基三豐醫療器材股份有限公司,公司,121.573212,25.078814
1674,旭富製藥科技股份有限公司,公司,121.263322,25.113561
1675,友華生技醫藥股份有限公司,公司,121.543397,25.034935
1676,晟德大藥廠股份有限公司,公司,121.611919,25.056912
1677,太平洋醫材股份有限公司,公司,120.792178,24.480408
1678,天良生物科技企業股份有限公司,公司,121.631684,25.056277
1679,中天生物科技股份有限公司,公司,121.611987,25.058478
1680,聯合骨科器材股份有限公司,公司,121.000313,24.778535
1681,亞諾法生技股份有限公司,公司,121.569827,25.080378
1682,麗豐股份有限公司,公司,121.569467,25.035549
1683,曜亞國際股份有限公司,公司,121.484184,25.006294
1684,國光生物科技股份有限公司,公司,120.728886,24.20277
1685,中裕新藥股份有限公司,公司,121.56684,25.080183
1686,全宇生技控股有限公司,公司,121.544321,25.054746
1687,台灣微脂體股份有限公司,公司,121.611987,25.058478
1688,鈺緯科技開發股份有限公司,公司,121.490684,25.003167
1689,訊映光電股份有限公司,公司,121.006906,24.798114
1690,創源生物科技股份有限公司,公司,121.574449,25.058999
1691,聿新生物科技股份有限公司,公司,120.871162,24.656423
1692,智擎生技製藥股份有限公司,公司,121.538428,25.057611
1693,鐿鈦科技股份有限公司,公司,120.602672,24.146635
1694,承業生醫投資控股股份有限公司,公司,121.542608,25.054472
1695,台灣醣聯生技醫藥股份有限公司,公司,121.648092,25.06162
1696,久裕企業股份有限公司,公司,121.484184,25.006294
1697,台灣浩鼎生技股份有限公司,公司,121.611987,25.058478
1698,杏一醫療用品股份有限公司,公司,121.368168,25.059352
1699,安克生醫股份有限公司,公司,121.544306,25.053898
1700,杏國新藥股份有限公司,公司,121.752163,24.634263
1701,環瑞醫投資控股股份有限公司,公司,121.575672,25.058444
1702,中華食品實業股份有限公司,公司,120.416287,22.68531
1703,環泰企業股份有限公司,公司,121.292719,25.049323
1704,信立化學工業股份有限公司,公司,120.181715,23.224568
1705,世坤塑膠股份有限公司,公司,120.220288,23.181372
1706,炎洲股份有限公司,公司,121.585815,25.064599
1707,東隆興業股份有限公司,公司,121.479412,25.01781
1708,福大材料科技股份有限公司,公司,120.537532,24.259971
1709,新昕纖維股份有限公司,公司,121.509314,25.052098
1710,飛寶企業股份有限公司,公司,121.528181,25.051888
1711,如興股份有限公司,公司,121.544229,25.050474
1712,三圓建設股份有限公司,公司,121.531358,25.051855
1713,金洲海洋科技股份有限公司,公司,120.462686,22.514237
1714,元勝國際實業股份有限公司,公司,120.554517,23.864614
1715,光明絲織廠股份有限公司,公司,121.56684,25.080183
1716,利勤實業股份有限公司,公司,120.594953,23.71166
1717,聚紡股份有限公司,公司,121.117225,25.04795
1718,耀億工業股份有限公司,公司,120.494,24.117816
1719,銘旺實業股份有限公司,公司,121.469626,25.072541
1720,興采實業股份有限公司,公司,121.455337,25.064571
1721,廣越企業股份有限公司,公司,121.56684,25.080183
1722,冠星集團控股有限公司,公司,121.535113,25.051819
1723,健信科技工業股份有限公司,公司,120.433307,24.128046
1724,高鋒工業股份有限公司,公司,120.625806,24.220282
1725,福裕事業股份有限公司,公司,120.651977,24.211531
1726,永彰機電股份有限公司,公司,121.54428,25.052848
1727,東台精機股份有限公司,公司,120.258908,22.831503
1728,霖冷凍機械股份有限公司,公司,120.30589,22.644248
1729,江興鍛壓工業股份有限公司,公司,120.612134,24.161531
1730,淳紳股份有限公司,公司,121.555615,25.026814
1731,宏易創新國際股份有限公司,公司,121.543775,25.050142
1732,瑞智精密股份有限公司,公司,121.106191,25.04223
1733,協易機械工業股份有限公司,公司,121.305756,25.044649
1734,慶騰精密科技股份有限公司,公司,120.890197,24.674492
1735,大詠城機械股份有限公司,公司,120.389576,24.067055
1736,全球傳動科技股份有限公司,公司,121.414033,25.007762
1737,晟田科技工業股份有限公司,公司,120.272619,22.825126
1738,科嶠工業股份有限公司,公司,121.327048,24.983729
1739,萬在工業股份有限公司,公司,120.314744,22.962523
1740,銘鈺精密工業股份有限公司,公司,121.11228,25.058575
1741,桓達科技股份有限公司,公司,121.431636,24.970939
1742,長佳機電工程股份有限公司,公司,121.564442,25.082004
1743,智伸科技股份有限公司,公司,121.649069,25.060483
1744,力達控股有限公司,公司,121.558531,25.030982
1745,橙的電子股份有限公司,公司,120.628203,24.225356
1746,台灣氣立股份有限公司,公司,121.422048,25.031278
1747,旭然國際股份有限公司,公司,120.517349,23.728165
1748,永新控股股份有限公司,公司,120.45211,23.4841
1749,強信機械科技股份有限公司,公司,121.324862,24.987409
1750,穎漢科技股份有限公司,公司,120.148839,23.039055
1751,元翎精密工業股份有限公司,公司,120.397173,23.736236
1752,時碩工業股份有限公司,公司,121.648416,25.060718
1753,科際精密股份有限公司,公司,121.486358,24.999739
1754,鈞興機電國際股份有限公司,公司,121.538304,25.03328
1755,駐龍精密機械股份有限公司,公司,120.32607,22.700741
1756,大銀微系統股份有限公司,公司,120.600184,24.145312
1757,捷流閥業股份有限公司,公司,121.415201,24.961856
1758,World Known MFG(Cayman)Limited,公司,120.671531,24.216277
1759,唐鋒實業股份有限公司,公司,121.238541,24.968412
1760,中美聯合實業股份有限公司,公司,121.548388,25.029105
1761,大恭化學工業股份有限公司,公司,121.580267,25.050438
1762,磐亞股份有限公司,公司,121.532583,25.042014
1763,永純化學工業股份有限公司,公司,121.532874,25.055792
1764,南璋股份有限公司,公司,121.514784,25.114939
1765,永捷創新科技股份有限公司,公司,120.237112,23.110441
1766,大立高分子工業股份有限公司,公司,120.340126,22.715076
1767,德淵企業股份有限公司,公司,121.449502,25.064399
1768,美琪瑪國際股份有限公司,公司,121.127923,25.053432
1769,國精化學股份有限公司,公司,120.254023,22.809698
1770,信昌化學工業股份有限公司,公司,121.523259,25.060676
1771,永昕生物醫藥股份有限公司,公司,120.91997,24.707246
1772,雙美生物科技股份有限公司,公司,120.284485,23.097895
1773,熒茂光學股份有限公司,公司,120.259101,22.836352
1774,豪展醫療科技股份有限公司,公司,121.471902,25.050118
1775,泰博科技股份有限公司,公司,121.453389,25.071383
1776,華廣生技股份有限公司,公司,120.649699,24.118372
1777,康普材料科技股份有限公司,公司,121.013135,24.868285
1778,泓瀚科技股份有限公司,公司,120.923698,24.75394
1779,合一生技股份有限公司,公司,121.55309,25.032972
1780,皇將科技股份有限公司,公司,120.710814,24.101018
1781,台耀化學股份有限公司,公司,121.277035,25.092784
1782,強生化學製藥廠股份有限公司,公司,121.489725,25.075271
1783,國碳科技股份有限公司,公司,121.261079,25.108452
1784,三福化工股份有限公司,公司,121.522816,25.053021
1785,濟南大自然新材料股份有限公司,公司,121.558269,25.036435
1786,雙鍵化工股份有限公司,公司,121.483267,25.007003
1787,南寶樹脂化學工廠股份有限公司,公司,120.197948,23.117607
1788,誠泰工業科技股份有限公司,公司,120.26004,22.829981
1789,威馳克媒體集團股份有限公司,公司,121.575057,25.075178
1790,大略國際控股有限公司,公司,121.54428,25.052848
1791,昇華娛樂傳播股份有限公司,公司,121.579195,25.065147
1792,聯合光纖通信股份有限公司,公司,120.986667,24.777994
1793,遠傳電信股份有限公司,公司,121.549255,25.026009
1794,台聯電訊股份有限公司,公司,121.58087,25.071914
1795,富宇地產股份有限公司,公司,120.637356,24.163599
1796,新復興微波通訊股份有限公司,公司,121.064499,24.940669
1797,德英生物科技股份有限公司,公司,120.136411,23.039002
1798,聯德控股股份有限公司,公司,121.403077,24.97605
1799,致伸科技股份有限公司,公司,121.565672,25.080829
1800,事欣科技股份有限公司,公司,121.2393,24.981697
1801,欣厚科技股份有限公司,公司,121.523401,25.049313
1802,泰鼎國際股份有限公司,公司,121.549507,25.057509
1803,燦星網通股份有限公司,公司,121.573103,25.063129
1804,新盛力科技股份有限公司,公司,120.287488,22.606584
1805,友輝光電股份有限公司,公司,121.287817,24.918623
1806,太極能源科技股份有限公司,公司,121.249114,24.97631
1807,茂林光電科技(開曼)股份有限公司,公司,121.20901,24.991378
1808,和碩聯合科技股份有限公司,公司,121.469134,25.124642
1809,亞洲電材股份有限公司,公司,121.007318,24.846032
1810,嘉彰股份有限公司,公司,121.285467,25.064155
1811,開曼康而富控股股份有限公司,公司,121.437493,24.964839
1812,紅心辣椒娛樂科技股份有限公司,公司,121.567967,25.080825
1813,昂寶電子股份有限公司,公司,121.552097,24.98366
1814,牧東光電股份有限公司,公司,121.548388,25.029105
1815,凌通科技股份有限公司,公司,121.008577,24.774753
1816,緯創軟體股份有限公司,公司,121.64778,25.061592
1817,光鋐科技股份有限公司,公司,120.262373,23.092739
1818,臻鼎科技控股股份有限公司,公司,121.257994,25.071664
1819,誠美材料科技股份有限公司,公司,120.257524,23.105399
1820,立積電子股份有限公司,公司,121.563447,25.081095
1821,湯石照明科技股份有限公司,公司,121.422968,24.987525
1822,廣穎電通股份有限公司,公司,121.569927,25.080338
1823,亞泰影像科技股份有限公司,公司,121.484061,25.006495
1824,華星光通科技股份有限公司,公司,121.246575,24.984119
1825,科誠股份有限公司,公司,121.49087,24.999998
1826,李長榮科技股份有限公司,公司,121.560326,25.04857
1827,傳奇網路遊戲股份有限公司,公司,121.579137,25.049215
1828,晶達光電股份有限公司,公司,121.552277,24.984233
1829,鑫禾科技股份有限公司,公司,121.622649,25.068774
1830,三星科技股份有限公司,公司,120.278981,22.967251
1831,榮剛材料科技股份有限公司,公司,120.280922,23.30168
1832,久陽精密股份有限公司,公司,120.284192,22.764534
1833,強新工業股份有限公司,公司,120.175297,23.180703
1834,建錩實業股份有限公司,公司,121.192184,25.065898
1835,華祺工業股份有限公司,公司,121.248402,24.990283
1836,富強輪胎工廠股份有限公司,公司,120.568485,23.944548
1837,凱衛資訊股份有限公司,公司,121.559905,25.050138
1838,力新國際科技股份有限公司,公司,121.577335,25.060019
1839,訊連科技股份有限公司,公司,121.536186,24.983001
1840,中茂能資系統整合科技(股)公司,公司,121.573212,25.080527
1841,坤悅開發股份有限公司,公司,120.639556,24.15913
1842,新鼎系統股份有限公司,公司,121.524159,25.10581
1843,寶碩財務科技股份有限公司,公司,121.545759,25.047899
1844,蒙恬科技股份有限公司,公司,121.006165,24.7938
1845,凌網科技股份有限公司,公司,121.019611,24.841393
1846,亞昕國際開發股份有限公司,公司,121.54929,25.04633
1847,科嘉(開曼)股份有限公司,公司,121.493588,24.99743
1848,萬達光電科技股份有限公司,公司,121.374745,25.046122
1849,安力國際股份有限公司,公司,121.444059,25.057272
1850,蓋曼立凱電能科技(股)公司,公司,121.323027,24.980197
1851,雷笛克光學股份有限公司,公司,121.483816,25.008196
1852,達興材料股份有限公司,公司,120.607487,24.204606
1853,乙盛精密工業股份有限公司,公司,121.425957,24.963418
1854,天鉞電子股份有限公司,公司,121.485896,24.996516
1855,虹堡科技股份有限公司,公司,121.540011,24.984653
1856,智崴資訊科技股份有限公司,公司,120.298963,22.605027
1857,鎧勝控股有限公司,公司,121.47241,25.12674
1858,祥碩科技股份有限公司,公司,121.536412,24.982599
1859,笙科電子股份有限公司,公司,121.011483,24.83963
1860,信驊科技股份有限公司,公司,120.992407,24.805405
1861,尚凡國際創新科技股份有限公司,公司,121.525367,25.023505
1862,大峽谷半導體照明系統(開曼),公司,120.652569,24.164411
1863,禾聯碩股份有限公司,公司,121.374722,25.051772
1864,經寶精密控股股份有限公司,公司,121.53285,25.054189
1865,開曼商豐祥控股股份有限公司,公司,121.434558,25.019262
1866,宜鼎國際股份有限公司,公司,121.634894,25.058005
1867,邑昇實業股份有限公司,公司,121.328196,24.983872
1868,杰力科技股份有限公司,公司,121.01236,24.840747
1869,寶得利國際股份有限公司,公司,121.518094,25.013771
1870,太欣半導體股份有限公司,公司,121.572436,25.076688
1871,鼎創達股份有限公司,公司,121.421394,24.959978
1872,敦南科技股份有限公司,公司,121.571259,25.077801
1873,桂盟國際股份有限公司,公司,120.232675,23.010051
1874,系統電子工業股份有限公司,公司,121.574344,25.056374
1875,天剛資訊股份有限公司,公司,121.512277,25.050031
1876,寶島光學科技股份有限公司,公司,121.648092,25.06162
1877,友銓電子股份有限公司,公司,121.323662,24.98271
1878,士林開發股份有限公司,公司,121.524987,25.105083
1879,華容股份有限公司,公司,120.384951,22.632653
1880,立衛科技股份有限公司,公司,121.018737,24.76564
1881,天揚精密科技股份有限公司,公司,121.226466,24.965468
1882,鈺創科技股份有限公司,公司,121.005086,24.783968
1883,台林電通股份有限公司,公司,121.283924,25.06171
1884,佳總興業股份有限公司,公司,121.327242,24.981475
1885,協益電子股份有限公司,公司,121.515124,25.044962
1886,力麗觀光開發股份有限公司,公司,121.53287,25.055377
1887,青雲國際科技股份有限公司,公司,121.485951,24.997115
1888,應華精密科技股份有限公司,公司,121.544282,25.052986
1889,慕康生技醫藥股份有限公司,公司,121.634943,25.058026
1890,中菲電腦股份有限公司,公司,121.580185,25.064423
1891,國眾電腦股份有限公司,公司,121.574645,25.072641
1892,台灣半導體股份有限公司,公司,121.540142,24.984031
1893,振發實業股份有限公司,公司,121.472235,25.054925
1894,達威光電股份有限公司,公司,121.577781,25.065332
1895,崇越科技股份有限公司,公司,121.562081,25.082312
1896,東友科技股份有限公司,公司,121.562431,25.083615
1897,高技企業股份有限公司,公司,121.328346,24.980535
1898,寶聯通綠能科技股份有限公司,公司,121.577597,25.073065
1899,佶優科技股份有限公司,公司,121.430441,24.970009
1900,昇益開發股份有限公司,公司,120.995709,24.803438
1901,宣德科技股份有限公司,公司,121.297691,25.044616
1902,同協電子股份有限公司,公司,121.43395,25.02297
1903,霖宏科技股份有限公司,公司,120.44824,23.523585
1904,富驊企業股份有限公司,公司,120.216913,23.035443
1905,瀚宇博德股份有限公司,公司,121.119013,25.057167
1906,松翰科技股份有限公司,公司,121.0162,24.843259
1907,聰泰科技開發股份有限公司,公司,121.52945,25.04304
1908,德宏工業股份有限公司,公司,121.1041,24.914815
1909,智冠科技股份有限公司,公司,120.303481,22.590416
1910,新華泰富股份有限公司,公司,121.549184,25.028912
1911,中美矽晶製品股份有限公司,公司,121.005849,24.777904
1912,慧友電子股份有限公司,公司,121.599172,25.005364
1913,通泰積體電路股份有限公司,公司,121.48782,24.9978
1914,松普科技股份有限公司,公司,121.365075,25.040568
1915,彩富電子股份有限公司,公司,121.569367,25.080565
1916,同亨科技股份有限公司,公司,121.005951,24.774156
1917,三聯科技股份有限公司,公司,121.543381,25.033722
1918,凱崴電子股份有限公司,公司,121.326021,24.981221
1919,永信建設開發股份有限公司,公司,120.314196,22.63193
1920,德昌營造股份有限公司,公司,120.681515,24.153091
1921,力麒建設股份有限公司,公司,121.530278,25.055869
1922,三豐建設股份有限公司,公司,121.542232,25.048414
1923,建國工程股份有限公司,公司,121.549145,25.030736
1924,雙喜營造股份有限公司,公司,120.979716,24.809336
1925,隆大營建事業股份有限公司,公司,120.313912,22.610754
1926,力泰建設企業股份有限公司,公司,121.497052,25.094611
1927,工信工程股份有限公司,公司,121.550089,25.044405
1928,遠雄建設事業股份有限公司,公司,121.563955,25.039552
1929,豐謙建設股份有限公司,公司,120.65979,24.156234
1930,順天建設股份有限公司,公司,120.647283,24.1596
1931,志嘉建設股份有限公司,公司,120.967308,24.768069
1932,龍巖股份有限公司,公司,121.633187,25.040882
1933,鄉林建設事業股份有限公司,公司,120.664101,24.155474
1934,皇鼎建設開發股份有限公司,公司,121.548437,25.036242
1935,長虹建設股份有限公司,公司,121.525975,25.045718
1936,聖暉工程科技股份有限公司,公司,120.647283,24.1596
1937,開曼東明控股股份有限公司,公司,120.298475,22.797122
1938,陸海股份有限公司,公司,121.651338,25.064713
1939,中連汽車貨運股份有限公司,公司,120.614458,24.171188
1940,遠雄自貿港投資控股股份有限公司,公司,121.563955,25.039552
1941,四維航業股份有限公司,公司,121.544306,25.053898
1942,劍湖山世界股份有限公司,公司,120.574155,23.61249
1943,亞都麗緻大飯店股份有限公司,公司,121.529991,25.062774
1944,知本老爺大酒店股份有限公司,公司,121.007451,22.690363
1945,鳳凰國際旅行社股份有限公司,公司,121.524022,25.049389
1946,日盛金融控股股份有限公司,公司,121.536351,25.051812
1947,致和證券股份有限公司,公司,120.201671,22.999987
1948,中租控股股份有限公司,公司,121.572346,25.077282
1949,上海商業儲蓄銀行股份有限公司,公司,121.535161,25.058126
1950,台名保險經紀人股份有限公司,公司,121.515124,25.044962
1951,合作金庫金融控股股份有限公司,公司,121.545337,25.048425
1952,德記洋行股份有限公司,公司,120.24463,23.034185
1953,全家便利商店股份有限公司,公司,121.52297,25.056093
1954,寶雅國際股份有限公司,公司,120.198021,22.998258
1955,南仁湖育樂股份有限公司,公司,120.313841,22.629047
1956,台南企業(開曼)股份有限公司,公司,120.226659,22.983543
1957,大洋百貨集團控股股份有限公司,公司,121.54371,25.025846
1958,群益金鼎證券股份有限公司,公司,121.547604,25.057396
1959,宏遠證券股份有限公司,公司,121.55309,25.032972
1960,康和綜合證券股份有限公司,公司,121.565209,25.042814
1961,大展證券股份有限公司,公司,121.517065,25.050153
1962,大慶證券股份有限公司,公司,121.53569,25.057707
1963,元大期貨股份有限公司,公司,121.543673,25.052049
1964,群益期貨股份有限公司,公司,121.549184,25.028912
1965,福邦證券股份有限公司,公司,121.518144,25.045821
1966,寬魚國際股份有限公司,公司,121.543245,25.024604
1967,創惟科技股份有限公司,公司,121.540142,24.984031
1968,亞元科技股份有限公司,公司,121.540623,25.013743
1969,大宇資訊股份有限公司,公司,121.563547,25.040272
1970,亞矽科技股份有限公司,公司,121.572828,25.079196
1971,久威國際股份有限公司,公司,121.577369,25.071729
1972,鎰勝工業股份有限公司,公司,121.362672,25.041029
1973,瀚宇彩晶股份有限公司,公司,121.566081,25.038775
1974,迎廣科技股份有限公司,公司,121.303636,25.043029
1975,建達國際股份有限公司,公司,121.533143,24.98573
1976,達運精密工業股份有限公司,公司,121.032244,24.874858
1977,新普科技股份有限公司,公司,121.079412,24.886028
1978,擎邦國際科技工程股份有限公司,公司,121.576318,25.075199
1979,上奇科技股份有限公司,公司,121.580968,25.070675
1980,業強科技股份有限公司,公司,121.613866,25.056028
1981,廣運機械工程股份有限公司,公司,121.790209,25.098918
1982,信音企業股份有限公司,公司,121.050787,24.892191
1983,九豪精密陶瓷股份有限公司,公司,121.232827,24.912533
1984,上福全球科技股份有限公司,公司,120.528491,24.235272
1985,普誠科技股份有限公司,公司,121.551327,24.978997
1986,星寶國際股份有限公司,公司,121.563747,25.051213
1987,鈞泰國際股份有限公司,公司,121.544158,25.047968
1988,金橋科技股份有限公司,公司,121.599087,25.005271
1989,富爾特科技股份有限公司,公司,121.543271,24.978788
1990,茂達電子股份有限公司,公司,121.024253,24.768325
1991,亞翔工程股份有限公司,公司,121.632903,25.056972
1992,訊達電腦股份有限公司,公司,121.537369,25.061582
1993,柏承科技股份有限公司,公司,121.55705,25.029174
1994,友勁科技股份有限公司,公司,121.576099,25.071743
1995,振曜科技股份有限公司,公司,121.020088,24.846499
1996,得利影視股份有限公司,公司,121.520494,25.063051
1997,耕興股份有限公司,公司,121.648865,25.060562
1998,頎邦科技股份有限公司,公司,121.020032,24.764209
1999,驊宏資通股份有限公司,公司,121.525975,25.045718
2000,撼訊科技股份有限公司,公司,121.645874,25.061727
2001,晉倫科技股份有限公司,公司,121.182362,25.059276
2002,百一電子股份有限公司,公司,121.239259,24.98214
2003,嘉聯益科技股份有限公司,公司,121.42333,24.984887
2004,順發電腦股份有限公司,公司,120.313443,22.637463
2005,鈞寶電子工業股份有限公司,公司,121.199344,24.899674
2006,松上電子股份有限公司,公司,121.438219,24.964476
2007,禾昌興業股份有限公司,公司,121.324924,24.978968
2008,欣技資訊股份有限公司,公司,121.549122,25.022065
2009,捷波資訊股份有限公司,公司,121.540011,24.984653
2010,華電聯網股份有限公司,公司,121.64864,25.060552
2011,華興電子工業股份有限公司,公司,121.533786,24.984546
2012,捷泰精密工業股份有限公司,公司,121.54657,25.048043
2013,凌華科技股份有限公司,公司,121.48782,24.9978
2014,久正光電股份有限公司,公司,120.606468,24.170332
2015,宏齊科技股份有限公司,公司,120.917242,24.773551
2016,昱泉國際股份有限公司,公司,121.572677,25.076218
2017,統振股份有限公司,公司,121.60118,25.060151
2018,台灣亞銳士股份有限公司,公司,120.618412,24.181118
2019,互億科技股份有限公司,公司,121.005018,24.802295
2020,信昌電子陶瓷股份有限公司,公司,121.158756,24.925542
2021,達麗建設事業股份有限公司,公司,121.536302,25.050356
2022,亞通利大能源股份有限公司,公司,121.648487,25.060497
2023,遊戲橘子數位科技股份有限公司,公司,121.576449,25.071847
2024,關貿網路股份有限公司,公司,121.613866,25.056028
2025,大豐有線電視股份有限公司,公司,121.437985,24.973534
2026,幃翔精密股份有限公司,公司,121.429878,24.970174
2027,新潤興業股份有限公司,公司,121.54518,25.058077
2028,萬潤科技股份有限公司,公司,120.262574,22.841237
2029,廣明光電股份有限公司,公司,121.374448,25.048365
2030,豐藝電子股份有限公司,公司,121.564875,25.085574
2031,萬泰科技股份有限公司,公司,121.241787,24.976637
2032,精成科技股份有限公司,公司,121.539731,24.983062
2033,巨路國際股份有限公司,公司,121.611839,25.057765
2034,育富電子股份有限公司,公司,121.302045,25.014821
2035,詩肯股份有限公司,公司,121.366134,25.044117
2036,帆宣系統科技股份有限公司,公司,121.611987,25.058478
2037,佳必琪國際股份有限公司,公司,121.487804,24.997323
2038,凌泰科技股份有限公司,公司,121.576584,25.074023
2039,天品聯合企業股份有限公司,公司,121.239188,24.890599
2040,亞弘電科技股份有限公司,公司,120.212866,23.075451
2041,盛群半導體股份有限公司,公司,120.989513,24.776568
2042,海韻電子工業股份有限公司,公司,121.570677,25.080787
2043,台灣艾華電子工業股份有限公司,公司,121.29655,25.019879
2044,詮欣股份有限公司,公司,121.674297,25.073587
2045,飛捷科技股份有限公司,公司,121.579471,25.064679
2046,雷科股份有限公司,公司,120.305645,22.588228
2047,日揚科技股份有限公司,公司,120.204141,23.059757
2048,今國光學工業股份有限公司,公司,120.516628,24.22781
2049,理銘開發股份有限公司,公司,120.995686,24.80356
2050,聯茂電子股份有限公司,公司,121.087317,24.812172
2051,精誠資訊股份有限公司,公司,121.573655,25.076727
2052,和椿科技股份有限公司,公司,121.572644,25.079267
2053,中國探針股份有限公司,公司,121.460425,24.994036
2054,豪勉科技股份有限公司,公司,121.51719,25.052192
2055,富旺國際開發股份有限公司,公司,120.655069,24.155391
2056,岳豐科技股份有限公司,公司,121.134769,24.969242
2057,晉泰科技股份有限公司,公司,120.989541,24.800065
2058,上揚科技股份有限公司,公司,121.637244,25.060364
2059,旺矽科技股份有限公司,公司,121.009669,24.848579
2060,天瀚科技股份有限公司,公司,121.544424,25.048369
2061,光鼎電子股份有限公司,公司,121.486419,24.999623
2062,茂綸股份有限公司,公司,121.540011,24.984653
2063,全譜科技股份有限公司,公司,121.634943,25.058026
2064,研通科技股份有限公司,公司,121.62264,25.068916
2065,超眾科技股份有限公司,公司,121.468925,25.057998
2066,系微股份有限公司,公司,121.536261,25.058115
2067,旺玖科技股份有限公司,公司,121.591688,25.054613
2068,高僑自動化科技股份有限公司,公司,120.651427,24.408016
2069,華孚科技股份有限公司,公司,121.25014,24.904125
2070,康呈生醫科技股份有限公司,公司,121.544146,25.037673
2071,驊訊電子企業股份有限公司,公司,121.549875,25.044435
2072,勝麗國際股份有限公司,公司,121.009586,24.847194
2073,松崗數位文創股份有限公司,公司,121.515823,25.046303
2074,易通展科技股份有限公司(原享承),公司,120.15017,23.042224
2075,茂迪股份有限公司,公司,121.600119,25.004491
2076,立端科技股份有限公司,公司,121.651368,25.064541
2077,臺龍電子股份有限公司,公司,121.460564,25.051083
2078,淇譽電子科技股份有限公司,公司,121.479299,25.009012
2079,沛波鋼鐵股份有限公司,公司,121.518175,25.067598
2080,定穎電子股份有限公司,公司,121.299935,25.036035
2081,矽格股份有限公司,公司,121.099047,24.733801
2082,百徽股份有限公司,公司,121.576662,25.067705
2083,久元電子股份有限公司,公司,121.00462,24.783052
2084,普萊德科技股份有限公司,公司,121.53662,24.983029
2085,方土昶股份有限公司,公司,121.548771,24.980165
2086,泰詠電子股份有限公司,公司,120.937234,24.794308
2087,倍微科技股份有限公司,公司,121.645591,25.060815
2088,同欣電子工業股份有限公司,公司,121.510757,25.043561
2089,台燿科技股份有限公司,公司,121.018632,24.845106
2090,元山科技工業股份有限公司,公司,120.336842,22.713846
2091,安鈦克科技股份有限公司,公司,121.569455,25.080908
2092,宏正自動科技股份有限公司,公司,121.650414,25.064001
2093,台灣表面黏著科技股份有限公司,公司,121.323963,24.974494
2094,胡連精密股份有限公司,公司,121.631119,25.061866
2095,全國電子股份有限公司,公司,121.44658,25.068314
2096,康舒科技股份有限公司,公司,121.44846,25.202864
2097,淳安電子股份有限公司,公司,121.578987,25.063282
2098,佳邦科技股份有限公司,公司,120.909717,24.726299
2099,華上光電股份有限公司,公司,121.014804,24.860111
2100,良維科技股份有限公司,公司,121.526632,25.04856
2101,迅德興業股份有限公司,公司,121.304001,25.031262
2102,智基科技開發股份有限公司,公司,120.205387,22.998813
2103,中國通訊多媒體集團有限公司,公司,121.578819,25.04115
2104,悅城科技股份有限公司,公司,121.242312,24.977474
2105,旭隼科技股份有限公司,公司,121.584327,25.064399
2106,晶焱科技股份有限公司,公司,121.485553,24.997889
2107,群光電能科技股份有限公司,公司,121.47225,25.056943
2108,樺漢科技股份有限公司,公司,121.48678,24.999469
2109,矽力杰股份有限公司,公司,121.483904,25.008164
2110,瑞祺電通股份有限公司,公司,121.423505,24.985797
2111,韋僑科技股份有限公司,公司,120.719084,24.097729
2112,詠昇電子股份有限公司,公司,121.233293,24.980345
2113,京晨科技股份有限公司,公司,121.483558,25.006443
2114,易發精機股份有限公司,公司,121.243396,24.972396
2115,統新光訊股份有限公司,公司,120.284209,23.098756
2116,光麗光電科技股份有限公司,公司,120.179999,22.990219
2117,今展科技股份有限公司,公司,121.468543,25.044136
2118,迅得機械股份有限公司,公司,121.261653,24.960623
2119,廣錠科技股份有限公司,公司,121.64778,25.061592
2120,光紅建聖股份有限公司,公司,121.459453,25.156786
2121,元晶太陽能科技股份有限公司,公司,121.539841,24.986083
2122,藥華醫藥股份有限公司,公司,121.611987,25.058478
2123,鈺邦科技股份有限公司,公司,120.919814,24.706752
2124,訊芯科技控股股份有限公司,公司,121.557885,25.03246
2125,康友製藥控股有限公司,公司,121.561111,25.034254
2126,GIS Holding Limited,公司,120.91543,24.709561
2127,紘康科技股份有限公司,公司,121.522684,25.086438
2128,益得生物科技股份有限公司,公司,121.571909,25.076501
2129,神盾股份有限公司,公司,121.572397,25.077245
2130,台灣數位光訊科技股份有限公司,公司,120.647283,24.1596
2131,大樹醫藥股份有限公司,公司,121.255756,24.977225
2132,宇智網通股份有限公司,公司,121.021275,24.779026
2133,保瑞藥業股份有限公司,公司,121.581478,25.062505
2134,安集科技股份有限公司,公司,120.144199,23.047343
2135,弘煜科技事業股份有限公司,公司,120.67016,24.151302
2136,點序科技股份有限公司,公司,121.007143,24.79782
2137,互動國際數位股份有限公司,公司,121.452797,25.064344
2138,環球晶圓股份有限公司,公司,121.005849,24.777904
2139,晶碩光學股份有限公司,公司,121.328249,24.988264
2140,生華生物科技股份有限公司,公司,121.539841,24.986083
2141,九齊科技股份有限公司,公司,121.006347,24.804421
2142,科懋生物科技股份有限公司,公司,121.611987,25.058478
2143,亞獅康股份有限公司,公司,121.568126,25.034459
2144,益安生醫股份有限公司,公司,121.521524,25.086338
2145,南六企業股份有限公司,公司,120.343847,22.78301
2146,台塑石化股份有限公司,公司,121.549415,25.056625
2147,惠光股份有限公司,公司,120.230493,23.179576
2148,聚和國際股份有限公司,公司,120.433719,22.579488
2149,啟發電子股份有限公司,公司,121.033285,24.813317
2150,芮特科技股份有限公司,公司,121.702744,25.08653
2151,勤崴國際科技股份有限公司,公司,121.522336,25.026841
2152,達爾膚生醫科技股份有限公司,公司,121.538889,25.051752
2153,捷敏股份有限公司,公司,121.49211,25.005369
2154,明達醫學科技股份有限公司,公司,121.285228,24.991451
2155,創威光電股份有限公司,公司,121.549481,24.979828
2156,愛普科技股份有限公司,公司,121.018996,24.840973
2157,瑞耘科技股份有限公司,公司,121.017559,24.857285
2158,順天醫藥生技股份有限公司,公司,121.611987,25.058478
2159,倉和股份有限公司,公司,121.398028,25.018474
2160,隆中網絡股份有限公司,公司,121.463438,25.012523
2161,勝品電通股份有限公司,公司,121.323018,24.983452
2162,欣普羅光電股份有限公司,公司,121.460149,25.039054
2163,是方電訊股份有限公司,公司,121.581961,25.070764
2164,宏觀微電子股份有限公司,公司,121.021497,24.813141
2165,醫揚科技股份有限公司,公司,121.552072,24.984109
2166,維田科技股份有限公司,公司,121.487813,24.99668
2167,虹揚發展科技股份有限公司,公司,121.540011,24.984653
2168,霈方國際股份有限公司,公司,121.557075,25.041138
2169,逸達生物科技股份有限公司,公司,121.613866,25.056028
2170,勁豐電子股份有限公司,公司,121.565109,25.085571
2171,達邦蛋白股份有限公司,公司,120.149365,23.038402
2172,研揚科技股份有限公司,公司,121.552072,24.984109
2173,申豐特用應材股份有限公司,公司,120.586583,22.408631
2174,台康生技股份有限公司,公司,121.622687,25.070097
2175,普鴻資訊股份有限公司,公司,121.563891,25.040984
2176,動力科技股份有限公司,公司,121.486842,24.998232
2177,和潤企業股份有限公司,公司,121.53325,25.052658
2178,台灣銘板股份有限公司,公司,121.371758,25.044505
2179,展匯科技股份有限公司,公司,121.611418,25.055045
2180,寬宏藝術經紀股份有限公司,公司,121.560319,25.08012
2181,富強鑫精密工業股份有限公司,公司,120.302304,22.995287
2182,帝寶工業股份有限公司,公司,120.460522,24.088968
2183,台灣瀧澤科技股份有限公司,公司,121.196915,24.930609
2184,應用奈米醫材科技股份有限公司,公司,121.048519,24.805582
2185,朋億股份有限公司,公司,121.031456,24.806916
2186,慧智基因股份有限公司,公司,121.513098,25.043609
2187,萬年清環境工程股份有限公司,公司,120.628654,24.157741
2188,必應創造股份有限公司,公司,121.583366,25.063016
2189,泰金投資控股股份有限公司,公司,121.546149,25.051998
2190,均華精密工業股份有限公司,公司,121.41534,24.959558
2191,基士德科技股份有限公司,公司,120.294961,22.661856
2192,富致科技股份有限公司,公司,121.447466,25.068518
2193,天正國際精密機械股份有限公司,公司,120.340799,22.707284
2194,科定企業股份有限公司,公司,121.47225,25.056943
2195,樂斯科生物科技股份有限公司,公司,121.605708,25.057773
2196,群翊工業股份有限公司,公司,121.128168,24.9399
2197,信紘科技股份有限公司,公司,120.909509,24.723223
2198,中揚光電股份有限公司,公司,120.606022,24.159746
2199,緯穎科技服務股份有限公司,公司,121.648233,25.060479
2200,復盛應用科技股份有限公司,公司,121.534673,25.051831
2201,三能集團控股股份有限公司,公司,120.716375,24.097861
2202,騰輝電子國際集團股份有限公司,公司,121.198212,24.903424
2203,鋐寶科技股份有限公司,公司,121.018996,24.840973
2204,鑫創電子股份有限公司,公司,121.485564,24.998111
2205,雍智科技股份有限公司,公司,121.026589,24.83066
2206,安碁資訊股份有限公司,公司,121.564019,25.041454
2207,東捷資訊服務股份有限公司,公司,121.613866,25.056028
2208,旭暉應用材料股份有限公司,公司,120.152196,23.043714
2209,嘉基科技股份有限公司,公司,121.486861,24.996608
2210,應廣科技股份有限公司,公司,120.992407,24.805405
2211,崑鼎投資控股股份有限公司,公司,121.577543,25.057832
2212,邑錡股份有限公司,公司,121.569455,25.080908
2213,台通光電股份有限公司,公司,121.452961,25.063027
2214,矽創電子股份有限公司,公司,121.018596,24.841148
2215,尖點科技股份有限公司,公司,121.385581,24.947292
2216,佑華微電子股份有限公司,公司,120.989425,24.799859
2217,鈦昇科技股份有限公司,公司,120.374646,22.764257
2218,光菱電子股份有限公司,公司,121.645874,25.061727
2219,九暘電子股份有限公司,公司,121.006165,24.7938
2220,臺灣金山電子工業股份有限公司,公司,121.470939,25.049761
2221,蜜望實企業股份有限公司,公司,121.569435,25.081648
2222,網路家庭國際資訊股份有限公司,公司,121.549122,25.028461
2223,南亞電路板股份有限公司,公司,121.28197,25.05562
2224,星雲電腦股份有限公司,公司,121.628334,25.064883
2225,德勝科技股份有限公司,公司,121.59162,25.054807
2226,晶采光電科技股份有限公司,公司,121.649173,25.060603
2227,廣積科技股份有限公司,公司,121.611987,25.058478
2228,安國國際科技股份有限公司,公司,121.614402,25.057258
2229,凱碩科技股份有限公司,公司,121.424981,24.964127
2230,來思達國際企業股份有限公司,公司,121.575609,25.058741
2231,志旭國際股份有限公司,公司,121.466037,25.06172
2232,全達國際股份有限公司,公司,121.533143,24.98573
2233,元太科技工業股份有限公司,公司,121.018137,24.76882
2234,長華電材股份有限公司,公司,120.289925,22.603981
2235,能率網通股份有限公司,公司,121.622649,25.068774
2236,陞泰科技股份有限公司,公司,121.613866,25.056028
2237,鉅橡企業股份有限公司,公司,120.175297,23.180703
2238,伍豐科技股份有限公司,公司,121.645591,25.060815
2239,洛碁實業股份有限公司,公司,121.530721,25.052254
2240,永利聯合股份有限公司,公司,121.513333,25.043693
2241,致新科技股份有限公司,公司,121.004532,24.775728
2242,巨虹電子股份有限公司,公司,121.487238,24.996445
2243,福華電子股份有限公司,公司,121.52173,25.064468
2244,華鎂鑫科技股份有限公司,公司,121.650779,25.064933
2245,品安科技股份有限公司,公司,121.606273,25.073701
2246,建暐精密科技股份有限公司,公司,120.371365,22.642063
2247,保銳科技股份有限公司,公司,121.300709,25.03271
2248,擎亞電子股份有限公司,公司,121.611987,25.058478
2249,常珵科技股份有限公司,公司,121.422968,24.987525
2250,大同世界科技股份有限公司,公司,121.52173,25.064468
2251,華冠通訊股份有限公司,公司,121.575456,25.075101
2252,瀚荃股份有限公司,公司,121.45174,25.165507
2253,凌巨科技股份有限公司,公司,120.887804,24.673169
2254,大億金茂股份有限公司,公司,120.205595,23.070592
2255,華東科技股份有限公司,公司,120.287737,22.605916
2256,立碁電子工業股份有限公司,公司,121.423854,24.986564
2257,至上電子股份有限公司,公司,121.574797,25.075797
2258,振樺電子股份有限公司,公司,121.416154,24.959347
2259,越峰電子材料股份有限公司,公司,121.564736,25.07934
2260,福懋科技股份有限公司,公司,120.575002,23.713692
2261,正淩精密工業股份有限公司,公司,121.622626,25.069557
2262,博智電子股份有限公司,公司,121.208233,24.886085
2263,達方電子股份有限公司,公司,121.328022,24.985703
2264,天宇工業股份有限公司,公司,121.534931,24.983815
2265,智捷科技股份有限公司,公司,121.004202,24.782153
2266,無敵科技股份有限公司,公司,121.569975,25.080224
2267,勤誠興業股份有限公司,公司,121.48782,24.998435
2268,志超科技股份有限公司,公司,121.202374,24.904374
2269,明基材料股份有限公司,公司,121.322627,24.986675
2270,寶一科技股份有限公司,公司,120.283139,23.306329
2271,新漢股份有限公司,公司,121.48296,25.008378
2272,華宏新技股份有限公司,公司,120.292762,22.628062
2273,菱光科技股份有限公司,公司,121.588684,25.061827
2274,朋程科技股份有限公司,公司,121.280293,25.057548
2275,富鼎先進電子股份有限公司,公司,121.018596,24.841148
2276,宇瞻科技股份有限公司,公司,121.438479,24.965325
2277,商丞科技股份有限公司,公司,121.569094,25.079927
2278,生展生物科技股份有限公司,公司,120.336393,23.319828
2279,英格爾科技股份有限公司,公司,121.297917,25.044076
2280,泰藝電子股份有限公司,公司,121.419878,25.0012
2281,尚茂電子材料股份有限公司,公司,121.203344,25.092535
2282,群聯電子股份有限公司,公司,121.033285,24.813317
2283,日友環保科技股份有限公司,公司,120.321458,23.655365
2284,益張實業股份有限公司,公司,120.459946,23.878912
2285,恒耀國際股份有限公司,公司,120.217928,22.984711
2286,冠好科技股份有限公司,公司,120.664672,23.927741
2287,金居開發股份有限公司,公司,121.571259,25.077801
2288,建新國際股份有限公司,公司,120.514259,24.227923
2289,羅昇企業股份有限公司,公司,121.473116,25.050125
2290,千附實業股份有限公司,公司,121.288045,25.051472
2291,金益鼎企業股份有限公司,公司,120.887352,24.736667
2292,白紗科技印刷股份有限公司,公司,120.71962,24.140314
2293,盛弘醫藥股份有限公司,公司,121.306314,25.016234
2294,"Ginko International Co., Ltd.",公司,120.621095,24.216453
2295,商之器科技股份有限公司,公司,121.573967,25.080338
2296,森田印刷廠股份有限公司,公司,120.137261,23.039086
2297,大成國際鋼鐵股份有限公司,公司,120.262668,22.961741
2298,實威國際股份有限公司,公司,121.580273,25.062173
2299,明揚國際科技股份有限公司,公司,120.454263,22.647535
2300,可寧衛股份有限公司,公司,120.299942,22.786729
2301,惠普股份有限公司,公司,121.510087,25.050453
2302,基勝（開曼）控股股份有限公司,公司,121.537153,24.982799
2303,金麗集團控股有限公司,公司,121.5218,25.086205
2304,匯鑽科技股份有限公司,公司,121.577332,25.058593
2305,東生華製藥股份有限公司,公司,121.611839,25.057765
2306,弘帆股份有限公司,公司,121.57071,25.080857
2307,台灣鉅邁股份有限公司,公司,121.645075,25.061394
2308,大江生醫股份有限公司,公司,121.574855,25.075868
2309,大地幼教股份有限公司,公司,121.512184,25.04238
2310,綠電再生股份有限公司,公司,121.111244,24.901568
2311,阿瘦實業股份有限公司,公司,121.532874,25.055792
2312,華研國際音樂股份有限公司,公司,121.537524,25.060448
2313,霹靂國際多媒體股份有限公司,公司,121.611418,25.055045
2314,富邦媒體科技股份有限公司,公司,121.570963,25.079854
2315,柏文健康事業股份有限公司,公司,120.305192,22.673611
2316,潤泰精密材料股份有限公司,公司,121.542559,25.04688
2317,億豐綜合工業股份有限公司,公司,120.649185,24.140308
2318,夠麻吉股份有限公司,公司,121.549875,25.044435
2319,山林水環境工程股份有限公司,公司,121.530278,25.055869
2320,台境企業股份有限公司,公司,120.313715,22.630302
2321,創業家兄弟股份有限公司,公司,121.613866,25.056028
2322,東哥企業股份有限公司,公司,120.328522,22.570948
2323,泰昇國際(控股)有限公司,公司,121.522662,25.059488
2324,政伸企業股份有限公司,公司,120.597731,24.176216
2325,三貝德數位文創股份有限公司,公司,121.468435,25.045563
2326,格威傳媒股份有限公司,公司,121.577892,25.071629
2327,鼎炫投資控股股份有限公司,公司,121.483407,25.006754
2328,花王企業股份有限公司,公司,121.425535,24.96478
2329,欣雄天然氣股份有限公司,公司,120.358807,22.613309
2330,光隆實業股份有限公司,公司,121.549122,25.028461
2331,欣泰石油氣股份有限公司,公司,121.4379,24.973177
2332,沈氏藝術印刷股份有限公司,公司,121.444281,24.980743
2333,時報文化出版企業股份有限公司,公司,121.496,25.035207
2334,大田精密工業股份有限公司,公司,120.547741,22.64187
2335,北基國際股份有限公司,公司,121.460631,25.023371
2336,鉅明股份有限公司,公司,120.413825,22.563912
2337,富堡工業股份有限公司,公司,121.531803,25.042399
2338,青鋼應用材料股份有限公司,公司,120.323044,23.206547
2339,大園汽電共生股份有限公司,公司,121.177031,25.078042
2340,宏大拉鍊股份有限公司,公司,121.566263,25.08146
2341,愛地雅工業股份有限公司,公司,120.528154,24.232634
2342,衡平股份有限公司,公司,121.558797,25.032823
2343,邦泰複合材料股份有限公司,公司,120.730967,24.214448
2344,國統國際股份有限公司,公司,120.445515,22.516152
2345,明安國際企業股份有限公司,公司,120.365874,22.536773
2346,新天地國際實業股份有限公司,公司,120.701663,24.142143
2347,關中股份有限公司,公司,121.574611,25.076388
2348,森鉅科技材料股份有限公司,公司,120.299978,22.965962
2349,高力熱處理工業股份有限公司,公司,121.249489,24.986723
2350,鈺齊國際股份有限公司,公司,120.519769,23.726973
2351,台火開發股份有限公司,公司,121.510307,25.044286
2352,寶成工業股份有限公司,公司,120.623806,24.179341
2353,大華金屬工業股份有限公司,公司,121.533511,25.060625
2354,欣巴巴事業股份有限公司,公司,120.309453,22.604925
2355,統一實業股份有限公司,公司,120.267193,23.050767
2356,大台北區瓦斯股份有限公司,公司,121.559905,25.050138
2357,豐泰企業股份有限公司,公司,120.5087,23.721312
2358,台灣櫻花股份有限公司,公司,120.658221,24.220624
2359,偉聯科技股份有限公司,公司,121.611839,25.057765
2360,美利達工業股份有限公司,公司,120.57264,23.981437
2361,中興保全科技股份有限公司,公司,121.510087,25.050453
2362,欣欣天然氣股份有限公司,公司,121.513277,25.006965
2363,康那香企業股份有限公司,公司,120.193811,23.164003
2364,巨大機械工業股份有限公司,公司,120.639495,24.407101
2365,台灣福興工業股份有限公司,公司,120.277378,22.805873
2366,台灣新光保全股份有限公司,公司,121.58005,25.063839
2367,新海瓦斯股份有限公司,公司,121.48556,25.068411
2368,泰銘實業股份有限公司,公司,120.426775,22.577507
2369,中國電視事業股份有限公司,公司,121.598648,25.056182
2370,秋雨創新股份有限公司,公司,121.579137,25.049215
2371,中聯資源股份有限公司,公司,120.301885,22.604786
2372,欣高石油氣股份有限公司,公司,120.286176,22.620925
2373,中鼎工程股份有限公司,公司,121.524159,25.10581
2374,慶豐富實業股份有限公司,公司,120.420486,24.036846
2375,全國加油站股份有限公司,公司,121.540696,24.996282
2376,台灣百和工業股份有限公司,公司,120.489273,24.132387
2377,信義房屋股份有限公司,公司,121.565642,25.032751
2378,裕融企業股份有限公司,公司,121.548437,25.033024
2379,好樂迪股份有限公司,公司,121.572342,25.041105
2380,新麗企業股份有限公司,公司,121.279252,24.941883
2381,潤泰創新國際股份有限公司,公司,121.542559,25.04688
2382,三發地產股份有限公司(原:金革),公司,121.551561,25.048082
2383,琉園股份有限公司,公司,121.526777,25.003315
2384,萬國通路股份有限公司,公司,120.278927,22.935607
2385,皇田工業股份有限公司,公司,120.279917,23.040499
2386,佳龍科技工程股份有限公司,公司,121.062659,25.038101
2387,世紀鋼鐵結構股份有限公司,公司,121.109266,25.028368
2388,邁達康網路事業股份有限公司,公司,120.293015,22.615835
2389,有益鋼鐵股份有限公司,公司,120.248963,22.813272
2390,鮮活控股股份有限公司,公司,-81.3801903,19.2962
2391,廣華控股有限公司,公司,113.662593,22.910058
2392,勝悅新材料有限公司,公司,118.572179,24.817325
2393,富林塑膠工業(開曼)控股(股)公司,公司,106.7264125,20.7862238
2394,英屬開曼群島商駿吉控股(股)公司,公司,-81.3850976,19.292848
2395,六暉控股股份有限公司,公司,-81.3805826,19.3289301
2396,慧洋海運股份有限公司,公司,-81.3811227,19.2970988
2397,安瑞科技股份有限公司,公司,-81.3771057,19.291874
2398,馬光保健控股股份有限公司,公司,-81.381914,19.2980758
2399,龍燈環球農業科技有限公司,公司,-81.3811875,19.3292752
2400,康樂股份有限公司,公司,-81.3771057,19.291874
2401,佐登妮絲集團股份有限公司,公司,-81.3805826,19.3289301
2402,合富醫療控股股份有限公司,公司,-81.2408689,19.3221698
2403,日成控股股份有限公司,公司,-81.3805826,19.3289301
2404,譜瑞科技股份有限公司,公司,-81.3855332,19.2921885
2405,英特磊科技股份有限公司,公司,-81.3855332,19.2921885
2406,眾達科技股份有限公司,公司,-81.3850976,19.292848
2407,環宇通訊半導體控股股份有限公司,公司,-81.3771057,19.291874
2408,東科控股股份有限公司,公司,-81.3811875,19.3292752
2409,達輝股份有限公司,公司,-81.3850922,19.2927891
2410,崇佑股份有限公司,公司,-81.2408689,19.3221698
2411,泰福生技股份有限公司,公司,-81.3811875,19.3292752
2412,特昇國際股份有限公司,公司,-81.3805826,19.3289301
2413,百和興業股份有限公司(開曼),公司,-81.2408689,19.3221698
2414,福貞控股股份有限公司,公司,-81.3811875,19.3292752
2415,捷必勝控股股份有限公司,公司,-81.3855332,19.2921885
2416,保綠資源股份有限公司,公司,-81.3812698,19.3190099
2417,紅木集團有限公司,公司,-81.3763,19.291643
2418,威宏控股股份有限公司,公司,-81.3811875,19.3292752
2419,綠河股份有限公司,公司,100.3311331,7.1096604
2420,蓋曼群島商日本大拓股份有限公司,公司,-81.3771057,19.291874
2421,美吉吉國際股份有限公司,公司,-81.3805826,19.3289301
2422,波力環球企業股份有限公司,公司,-81.3855332,19.2921885
2423,商億全球控股有限公司,公司,-81.3810709,19.3293034
2424,吉源控股股份有限公司,公司,-81.3805826,19.3289301
2425,土銀-彰化,券商,120.541774,24.080994
2426,大鼎,券商,121.5581819,25.0328804
2427,元富-彰化,券商,120.5377366,24.0889851
2428,元富-屏東,券商,120.49203,22.691138
2429,元富-花蓮,券商,121.6085557,23.9809475
2430,日盛-花蓮,券商,121.6089301,23.9774134
2431,日盛-屏東,券商,120.4896406,22.6752465
2432,台灣企銀-太平,券商,120.7223289,24.1314346
2433,台灣企銀-屏東,券商,120.4899349,22.6703928
2434,永豐金-屏東,券商,120.4896406,22.6752465
2435,永豐金-彰化,券商,120.5409377,24.0780821
2436,國票-中港,券商,120.661917,24.15549
2437,康和-屏東,券商,120.4894742,22.6747526
2438,凱基-彰化,券商,120.5436869,24.0748491
2439,凱基-宜蘭,券商,121.755831,24.755309
2440,凱基-苗栗,券商,120.821696,24.5598403
2441,富邦-台東,券商,121.153267,22.7546268
2442,富邦-中壢,券商,121.225934,24.9653151
2443,富邦-彰化,券商,120.54353,24.0744019
2444,富邦-宜蘭,券商,121.755519,24.758726
2445,華南永昌-東昇,券商,121.1527787,22.753932
2446,臺銀-鳳山,券商,120.3572368,22.6291586
2447,達新工業股份有限公司,公司,120.591588,24.1678569
2448,台灣化學纖維股份有限公司,公司,120.5611259,24.0871263
2449,華友聯開發股份有限公司(原福益),公司,121.5178134,25.0343153
2450,大統新創股份有限公司,公司,121.510202,25.0529209
2451,弘裕企業股份有限公司,公司,120.5082715,24.1687939
2452,鑽全實業股份有限公司,公司,120.590828,24.172252
2453,高林股份有限公司,公司,121.5459651,25.0575084
2454,中宇環保工程股份有限公司,公司,120.3095738,22.6049418
2455,廣隆光電科技股份有限公司,公司,120.6634075,23.9311777
2456,濱川企業股份有限公司,公司,120.4352729,22.5904357
2457,華榮電線電纜股份有限公司,公司,120.294907,22.629318
2458,中國化學製藥股份有限公司,公司,121.5143628,25.0435644
2459,五鼎生物技術股份有限公司,公司,121.0194878,24.7654949
2460,日勝化工股份有限公司,公司,120.6605757,23.9216449
2461,展宇科技材料股份有限公司,公司,121.0193918,24.8628426
2462,科妍生物科技股份有限公司,公司,120.294588,22.591185
2463,台灣神隆股份有限公司,公司,120.2820762,23.1013472
2464,易威生醫科技股份有限公司,公司,121.002108,24.777101
2465,正隆股份有限公司,公司,121.4767141,25.0115624
2466,中國鋼鐵股份有限公司,公司,120.3556897,22.5598282
2467,第一伸銅科技股份有限公司,公司,120.294907,22.629318
2468,彰源企業股份有限公司,公司,120.5981092,23.7227346
2469,世德工業股份有限公司,公司,120.4228564,22.5805148
2470,嘉鋼精密工業股份有限公司,公司,120.4571175,23.5246337
2471,鑫永銓股份有限公司,公司,120.66445,23.9414214
2472,聯華電子股份有限公司,公司,121.019247,24.770377
2473,楠梓電子股份有限公司,公司,120.3039116,22.7213851
2474,台灣積體電路製造股份有限公司,公司,121.0128003,24.7730433
2475,旺宏電子股份有限公司,公司,121.0251807,24.7673861
2476,台灣光罩股份有限公司,公司,120.9981669,24.775137
2477,光磊科技股份有限公司,公司,120.99882,24.77576
2478,華邦電子股份有限公司,公司,120.6190887,24.2119618
2479,順德工業股份有限公司,公司,120.5840035,24.0834798
2480,英業達股份有限公司,公司,121.5215168,25.0854103
2481,瑞昱半導體股份有限公司,公司,120.995005,24.7805875
2482,台光電子材料股份有限公司,公司,121.129751,25.0482139
2483,環隆科技股份有限公司,公司,120.5997285,24.1631765
2484,仲琦科技股份有限公司,公司,121.0158887,24.7736153
2485,鼎元光電科技股份有限公司,公司,120.9143685,24.7101366
2486,三商電腦股份有限公司,公司,121.5709968,25.0282887
2487,銘旺科技股份有限公司,公司,121.242499,24.9725923
2488,晶元光電股份有限公司,公司,121.0232019,24.7633099
2489,聯發科技股份有限公司,公司,121.0232623,24.7722707
2490,義隆電子股份有限公司,公司,120.9964232,24.7772119
2491,百容電子股份有限公司,公司,120.601484,24.161165
2492,卓越成功股份有限公司,公司,120.9141268,24.7123188
2493,中華工程股份有限公司,公司,121.5650569,25.049728
2494,萬華企業股份有限公司,公司,121.5053258,25.0436659
2495,開曼美食達人股份有限公司,公司,120.6034748,24.1577074
2496,雅茗天地股份有限公司,公司,121.39106,31.2678649
2497,旺旺友聯產物保險股份有限公司,公司,121.5524189,25.0416892
2498,高林實業股份有限公司,公司,121.549903,25.05641
2499,台灣農林股份有限公司,公司,121.6118825,25.0584861
2500,神基科技股份有限公司,公司,121.0000979,24.775703
2501,晶豪科技股份有限公司,公司,121.0089521,24.7745241
2502,亞洲光學股份有限公司,公司,120.7014391,24.2175883
2503,信邦電子股份有限公司,公司,120.8180458,24.5749547
2504,星通資訊股份有限公司,公司,121.0043209,24.781444
2505,聯詠科技股份有限公司,公司,120.9972844,24.77592
2506,智原科技股份有限公司,公司,121.0218519,24.7736289
2507,健鼎科技股份有限公司,公司,121.1971991,24.9051904
2508,和鑫光電股份有限公司,公司,120.2662142,23.1236422
2509,喬鼎資訊股份有限公司,公司,121.0095051,24.7744882
2510,建漢科技股份有限公司,公司,121.0019849,24.771758
2511,協禧電機股份有限公司,公司,120.497688,22.667391
2512,聯傑國際股份有限公司,公司,121.0146597,24.7729961
2513,穩懋半導體股份有限公司,公司,121.3754587,25.0433928
2514,正達國際光電股份有限公司,公司,120.8027067,24.4872304
2515,璟德電子工業股份有限公司,公司,120.9974967,24.8683301
2516,波若威科技股份有限公司,公司,121.0055322,24.7743773
2517,景岳生物科技股份有限公司,公司,120.2800599,23.1126629
2518,亞信電子股份有限公司,公司,121.0043233,24.7814515
2519,原相科技股份有限公司,公司,121.0003867,24.7737793
2520,緯創資通股份有限公司,公司,120.9995382,24.7815839
2521,光環科技股份有限公司,公司,121.0016736,24.7858493
2522,虹冠電子工業股份有限公司,公司,120.999099,24.7794561
2523,太普高精密影像股份有限公司,公司,120.4246662,22.5789416
2524,點晶科技股份有限公司,公司,121.0010221,24.7837032
2525,熱映光電股份有限公司,公司,121.008586,24.7721151
2526,明泰科技股份有限公司,公司,121.0131023,24.774606
2527,新世紀光電股份有限公司,公司,120.2797908,23.1161417
2528,玉晶光電股份有限公司,公司,120.6227707,24.2085229
2529,京鼎精密科技股份有限公司,公司,120.9150452,24.7130436
2530,台興電子企業股份有限公司,公司,121.1989889,24.8984578
2531,榮創能源科技股份有限公司,公司,121.0156299,24.8582342
2532,台灣類比科技股份有限公司,公司,121.0197882,24.8403921
2533,創意電子股份有限公司,公司,121.0140126,24.7725929
2534,群創光電股份有限公司,公司,120.9146606,24.7144072
2535,揚明光學股份有限公司,公司,120.9981509,24.7816544
2536,位速科技股份有限公司,公司,121.161313,24.928793
2537,振維電子股份有限公司,公司,121.5770176,25.0746702
2538,凡甲科技股份有限公司,公司,121.4769141,25.0059788
2539,先益電子工業股份有限公司,公司,120.6032011,24.1616225
2540,敦泰電子股份有限公司,公司,121.0248379,24.7722685
2541,牧德科技股份有限公司,公司,121.00482,24.7805801
2542,聯合再生能源股份有限公司,公司,121.0209788,24.7728818
2543,映興電子股份有限公司,公司,120.6095008,24.159971
2544,洋華光電股份有限公司,公司,121.122479,25.057151
2545,富晶通科技股份有限公司,公司,121.377881,25.0467806
2546,晟楠科技股份有限公司,公司,121.4073534,25.0182984
2547,光耀科技股份有限公司,公司,121.0152729,24.773286
2548,隆達電子股份有限公司,公司,121.0060818,24.7764672
2549,上緯國際投資控股股份有限公司,公司,120.656136,23.916966
2550,日月光投資控股股份有限公司,公司,120.3065871,22.7209872
2551,雃博股份有限公司,公司,121.4139633,24.9607611
2552,優盛醫學科技股份有限公司,公司,121.5748567,25.075672
2553,健亞生物科技股份有限公司,公司,121.0259958,24.8729588
2554,晶宇生物科技實業股份有限公司,公司,120.7197674,24.1069541
2555,康聯控股有限公司,公司,121.457744,31.19143
2556,太景醫藥研發控股股份有限公司,公司,121.586719,25.057992
2557,展旺生命科技股份有限公司,公司,120.9140769,24.7081554
2558,瑞基海洋生物科技股份有限公司,公司,120.606066,24.2055958
2559,福永生物科技股份有限公司,公司,120.9996745,24.7769763
2560,勝昱科技股份有限公司,公司,121.5747692,25.0738381
2561,金雨企業股份有限公司,公司,120.536721,24.054931
2562,崇友實業(股)公司,公司,121.5311411,25.0517726
2563,至興精機股份有限公司,公司,120.5093239,24.171792
2564,拓凱實業股份有限公司,公司,120.608244,24.1593442
2565,健椿工業股份有限公司,公司,120.4335315,24.1401073
2566,百德機械股份有限公司,公司,120.6483704,24.4019227
2567,勤凱科技股份有限公司,公司,120.4239328,22.5863058
2568,正文科技股份有限公司,公司,121.0082405,24.8701792
2569,前鼎光電股份有限公司,公司,121.0077957,24.8616232
2570,新唐科技股份有限公司,公司,120.990387,24.779471
2571,兆遠科技股份有限公司,公司,120.9132329,24.712148
2572,天鈺科技股份有限公司,公司,121.0230624,24.7703795
2573,十銓科技股份有限公司,公司,121.4876185,24.9978164
2574,佳凌科技股份有限公司,公司,120.699412,24.2190504
2575,松和工業股份有限公司,公司,120.6662724,23.9321164
2576,智晶光電股份有限公司,公司,120.9187597,24.7092742
2577,界霖科技股份有限公司,公司,120.3033954,22.7245866
2578,數字科技股份有限公司,公司,121.4684349,25.0464749
2579,世紀民生科技股份有限公司,公司,121.0070081,24.7749133
2580,光聯科技股份有限公司,公司,120.70312,24.2183829
2581,建榮工業材料股份有限公司,公司,121.1172982,24.9314611
2582,世界先進積體電路股份有限公司,公司,120.9964335,24.7755569
2583,系通科技股份有限公司,公司,120.914074,24.707434
2584,先豐通訊股份有限公司,公司,121.1213663,25.0552552
2585,中強光電股份有限公司,公司,121.0280905,24.7687905
2586,合正科技股份有限公司,公司,121.239737,24.9770779
2587,金利精密工業股份有限公司,公司,121.1981667,24.9006943
2588,中磊電子股份有限公司,公司,121.6118825,25.0584861
2589,均豪精密工業股份有限公司,公司,120.9999244,24.7740251
2590,凱鈺科技股份有限公司,公司,121.004692,24.783813
2591,臺聯貨櫃通運股份有限公司,公司,121.6898304,25.0788031
2592,中菲行國際物流股份有限公司,公司,121.5917306,25.0684569
2593,合邦電子股份有限公司,公司,120.999099,24.7794561
2594,競國實業股份有限公司,公司,121.4292706,25.0051536
2595,聚碩科技股份有限公司,公司,121.5738721,25.0802349
2596,萬旭電業股份有限公司,公司,121.4483962,25.0699732
2597,安碁科技股份有限公司,公司,120.7031003,24.2182408
2598,立敦科技(股)有限公司,公司,120.7997525,24.4962777
2599,瑞儀光電股份有限公司,公司,120.2925843,22.5998656
2600,合晶科技股份有限公司,公司,121.1873966,24.8849928
2601,慶生電子股份有限公司,公司,121.250143,24.996637
2602,居易科技股份有限公司,公司,121.0051768,24.8688731
2603,聚鼎科技股份有限公司,公司,121.0067647,24.7750972
2604,力成科技股份有限公司,公司,120.9983556,24.8693044
2605,立康生醫事業股份有限公司(亨豐),公司,120.274395,23.0459711
2606,迅杰科技股份有限公司,公司,121.0232019,24.7633099
2607,富裔實業股份有限公司,公司,121.5274162,25.0915872
2608,台郡科技股份有限公司,公司,120.4238478,22.5804829
2609,啟碁科技股份有限公司,公司,120.999782,24.7779346
2610,元隆電子股份有限公司,公司,121.002562,24.7788061
2611,聯嘉光電股份有限公司,公司,120.916168,24.7129624
